,address,link,long,lat,property_type,property_costs,total_area,number_of_units,year_built,parking_spots,volume_rate,green_rating,developer_company,property_management_company
0,汤臣一品,https://shanghai.anjuke.com/community/view/8,31.23860800000001,121.508381,公寓,15.00元/平米/月,141894m²,220户,2006年,200,5.97,40%(高),汤臣海景花园（上海浦东新区）有限公司,晶华物业有限公司
1,中粮海景壹号,https://shanghai.anjuke.com/community/view/218807,31.236882,121.51028,公寓,12.00元/平米/月,116605m²,317户,2010年,200,4,51%(高),上海鹏利置业发展有限公司,上海高力国际物业服务有限公司
2,陆家嘴锦绣前城,https://shanghai.anjuke.com/community/view/725250,31.201611,121.542311,公寓,1.00元/平米/月,暂无数据,暂无数据,2016年,200,1.8,40%(高),上海陆家嘴（集团）有限公司,上海市陆家嘴物业管理有限公司
3,张江一村,https://shanghai.anjuke.com/community/view/13947,31.212369,121.619192,公寓,0.40元/平米/月,暂无数据,暂无数据,1995年,300个 ,1.8,32%(一般),暂无数据,暂无数据
4,长岛花苑,https://shanghai.anjuke.com/community/view/2679,31.270386,121.609057,公寓,1.00元/平米/月,23000m²,2034户,1993年,1000,1.2,35%(一般),上海浦东伟业房地产开发总公司,上海洋泾物业
5,陆家嘴国际华城,https://shanghai.anjuke.com/community/view/174,31.241847,121.542053,公寓,2.00元/平米/月,200000m²,1200户,2004年,900,2.2,60%(高),上海华能天地房地产有限公司,陆家嘴物业
6,上海绿城,https://shanghai.anjuke.com/community/view/130,31.209665,121.53948,公寓,2.55元/平米/月,暂无数据,暂无数据,2004年,120,2.2,50%(高),上海绿宇房地产开发有限公司,上海绿宇物业管理有限公司
7,仁恒河滨城(三期),https://shanghai.anjuke.com/community/view/818751,31.236467,121.572096,公寓,3.50元/平米/月,暂无数据,暂无数据,2009年,暂无数据,2.3,43%(高),上海仁恒房地产有限公司,仁恒物业
8,碧云国际社区晓园,https://shanghai.anjuke.com/community/view/100,31.247269,121.598271,公寓,3.90元/平米/月,50000m²,268户,2006年,380,1.6,49%(高),上海中通贵云实业有限公司,上海金晨物业管理有限公司
9,金谊河畔,https://shanghai.anjuke.com/community/view/13910,31.14652,121.522219,公寓,1.66元/平米/月,暂无数据,暂无数据,2009年,1395,1.89,45%(高),上海中房置业股份有限公司,上海中星集团申城物业有限公司
10,申金大厦,https://shanghai.anjuke.com/community/view/866771,31.234933,121.51706,公寓,2.50元/平米/月,暂无数据,暂无数据,暂无数据,暂无数据,暂无数据,暂无数据,暂无数据,上海申金物业
11,浦东世纪花园(二期公寓),https://shanghai.anjuke.com/community/view/725210,31.218683,121.565673,公寓,2.00元/平米/月,暂无数据,暂无数据,1999年,20,暂无数据,50%(高),上海东上海联合置业有限公司,浦东世纪物业
12,万科金色雅筑,https://shanghai.anjuke.com/community/view/62413,31.14950300000001,121.524971,公寓,2.80元/平米/月,暂无数据,暂无数据,2008年,540,1,35%(一般),上海中林置业发展有限公司,万科物业发展有限公司
13,世茂滨江花园(南区),https://shanghai.anjuke.com/community/view/14987,31.225557,121.520885,公寓,5.00元/平米/月,40000m²,180户,2009年,停车位共50个,3,20%(一般),上海世茂房地产有限公司,世茂物业管理有限公司
14,昌里花园,https://shanghai.anjuke.com/community/view/990259,31.18353,121.511483,公寓,1.57元/平米/月,暂无数据,暂无数据,2003年,暂无数据,暂无数据,46%(高),上海市城市建设综合开发有限公司,上海中凯物业有限公司
15,梅园三街坊,https://shanghai.anjuke.com/community/view/990141,31.24025,121.531872,公寓,0.85元/平米/月,暂无数据,暂无数据,1985年,暂无数据,1.4,35%(一般),上海建工集团,欣达物业管理有限公司
16,滨江凯旋门,https://shanghai.anjuke.com/community/view/370129,31.227654,121.518292,公寓,暂无数据,61500m²,688户,2013年,暂无数据,2.4,35%(一般),新鸿基地产发展有限公司,上海启胜物业管理服务有限公司
17,云台小区,https://shanghai.anjuke.com/community/view/98633,31.187561,121.505749,公寓,0.80元/平米/月,10000m²,160户,1993年,150,1.2,30%(一般),上海恒大房产股份有限公司,上海上钢物业公司
18,世茂湖滨花园(公寓),https://shanghai.anjuke.com/community/view/38,31.236906,121.583282,公寓,5.00元/平米/月,暂无数据,暂无数据,2004年,3000,1.5,40%(高),上海世茂建设有限公司,世茂物业管理有限公司
19,金海华城永华苑,https://shanghai.anjuke.com/community/view/866579,31.276301,121.689743,公寓,1.25元/平米/月,暂无数据,暂无数据,2015年,暂无数据,1.99,36%(一般),暂无数据,上海浦东东龙物业有限公司
20,星河湾,https://shanghai.anjuke.com/community/view/200907,31.198809000000004,121.542355,公寓,4.90元/平米/月,95000m²,531户,2009年,825,1.72,35%(一般),星河湾地产集团有限公司,广州星河湾物业管理服务有限公司上海分公司
21,紫薇公寓,https://shanghai.anjuke.com/community/view/190935,31.209821,121.623535,公寓,2.30元/平米/月,450000m²,1200户,2000年,1000,暂无数据,40%(高),上海市政府,上海陆家嘴物业管理有限公司
22,万邦都市花园,https://shanghai.anjuke.com/community/view/318,31.207524,121.56001100000002,公寓,1.60元/平米/月,暂无数据,暂无数据,2004年,2000,暂无数据,60%(高),上海万邦企业集团有限公司,上海复欣物业
23,盛大金磐花园,https://shanghai.anjuke.com/community/view/31,31.237461,121.512641,公寓,2.00元/平米/月,114588m²,500户,2005年,500,3.5,50%(高),上海金磐房地产开发有限公司,上海申厦物业
24,乾景雅园(别墅),https://shanghai.anjuke.com/community/view/875342,31.192454,121.554019,别墅,暂无数据,暂无数据,暂无数据,暂无数据,暂无数据,暂无数据,暂无数据,暂无数据,暂无数据
25,星颂家园,https://shanghai.anjuke.com/community/view/471134,31.281911,121.681865,公寓,1.11元/平米/月,134784m²,1728户,2012年,600,2.3,45%(高),中星地产,浦东东龙物业有限公司
26,丽泽兰馨苑,https://shanghai.anjuke.com/community/view/441077,30.981087,121.877702,公寓,1.50元/平米/月,暂无数据,336户,2007年,暂无数据,1.2,35%(一般),临港经济发展有限公司,上海南汇惠房物业管理有限公司
27,汇豪天下,https://shanghai.anjuke.com/community/view/81804,31.233372,121.516334,公寓,3.50元/平米/月,暂无数据,暂无数据,2005年,800,3.1,50%(高),上海浦东新翔房地产开发有限公司,东湖物业
28,滴水湖馨苑,https://shanghai.anjuke.com/community/view/1026165,30.90243,121.918067,公寓,1.75元/平米/月,暂无数据,暂无数据,2012年,暂无数据,1,暂无数据,上海海港新城房地产有限公司,上海海港新城物业服务
29,上南花苑(三期),https://shanghai.anjuke.com/community/view/1025895,31.186466,121.510807,公寓,0.80元/平米/月,暂无数据,暂无数据,1998年,暂无数据,2.4,暂无数据,上海浦东上南房产有限公司,上海南顺物业管理有限公司
30,周东公寓,https://shanghai.anjuke.com/community/view/725191,31.126031,121.593469,公寓,1.50元/平米/月,暂无数据,暂无数据,2007年,暂无数据,1.6,35%(一般),上海周房物业管理有限公司,周房置业物业有限公司 
31,鹤沙航城汇贤雅苑,https://shanghai.anjuke.com/community/view/619185,31.077689000000003,121.611335,公寓,1.20元/平米/月,暂无数据,暂无数据,2013年,1000,1.8,30%(一般),上海金沁房地产开发有限公司,物业
32,康桥半岛城中花园,https://shanghai.anjuke.com/community/view/615595,31.137625,121.584429,别墅,1.00元/平米/月,暂无数据,暂无数据,2012年,200,2.16,32%(一般),上海康桥半岛（集团）有限公司,上海新独院物业管理有限公司
33,浦发御园,https://shanghai.anjuke.com/community/view/370266,31.153149,121.541175,公寓,3.50元/平米/月,75624m²,642户,2013年,322,1.39,35%(一般),上海浦发澳丽房地产有限公司,浦房物业管理有限公司
34,印象春城,https://shanghai.anjuke.com/community/view/189926,31.121976,121.59636,公寓,1.78元/平米/月,暂无数据,暂无数据,2009年,550,暂无数据,40%(高),上海瀛浦置业有限公司,圣维仕物业管理有限公司
35,御翠园,https://shanghai.anjuke.com/community/view/150,31.223849,121.573489,别墅,8.00元/平米/月,160000m²,404户,2004年,500,0.35,56%(高),长江实业（集团）股份有限公司,和记物业服务上海有限公司
36,保利艾庐,https://shanghai.anjuke.com/community/view/659267,31.10417,121.648249,公寓,3.00元/平米/月,暂无数据,暂无数据,2015年,暂无数据,1.5,35%(一般),保利房地产（集团）股份有限公司,上海保利物业酒店管理集团有限公司
37,星纳家园,https://shanghai.anjuke.com/community/view/404552,31.29883400000001,121.67763,公寓,1.10元/平米/月,63284m²,986户,2012年,586,2.3,45%(高),上海中星（集团）有限公司,上海浦东东龙物业有限公司
38,金梅雅苑,https://shanghai.anjuke.com/community/view/211335,31.059046,121.766021,公寓,1.20元/平米/月,暂无数据,暂无数据,2009年,150,暂无数据,36%(一般),上海纬纳置业发展有限公司,伟纳物业有限公司
39,万科金色城市,https://shanghai.anjuke.com/community/view/85230,31.167212,121.578734,公寓,2.65元/平米/月,139204m²,5095户,2010年,3060,1.68,47%(高),上海万科房地产有限公司,上海万科物业管理有限公司
40,东港公寓,https://shanghai.anjuke.com/community/view/6079,31.223658,121.525103,公寓,1.00元/平米/月,25900m²,1890户,1987年,256,暂无数据,40%(高),上海建工集团,潍坊物业
41,幸福小镇明丰绿都,https://shanghai.anjuke.com/community/view/1109,31.30621,121.615737,公寓,1.20元/平米/月,300000m²,2800户,2006年,1000,1.4,35%(一般),上海虹阳置业有限公司,同涞物业管理公司
42,浦发绿城,https://shanghai.anjuke.com/community/view/1025933,31.151256,121.548708,公寓,0.55元/平米/月,暂无数据,暂无数据,2005年,暂无数据,1.3,35%(一般),浦东房地产开发责任有限公司,浦发物业公司
43,花木绿城锦绣兰庭,https://shanghai.anjuke.com/community/view/791621,31.209794,121.552405,公寓,3.00元/平米/月,暂无数据,暂无数据,2015年,650,2.4,35%(一般),浙江绿城房地产集团有限公司,上海绿城物业
44,远洋万和四季,https://shanghai.anjuke.com/community/view/782641,31.06821,121.79264,公寓,2.00元/平米/月,暂无数据,暂无数据,2016年,暂无数据,2,35%(一般),上海远汇置业有限公司,远洋物业管理有限公司
45,保利ONE56,https://shanghai.anjuke.com/community/view/626043,31.225028,121.519075,公寓,2.60元/平米/月,166000m²,156户,2013年,915,2.4,35%(一般),上海保利建昊商业投资有限公司, 上海保利物业管理有限公司 
46,汇福家园吉祥里,https://shanghai.anjuke.com/community/view/621021,31.097995,121.604681,公寓,1.20元/平米/月,暂无数据,暂无数据,2010年,500,暂无数据,35%(一般),暂无信息,友全物业管理有限公司
47,美林小城,https://shanghai.anjuke.com/community/view/7747,31.121493,121.572633,公寓,0.70元/平米/月,350000m²,3047户,2005年,1148,1.3,37%(一般),上海康星房地产开发有限公司,上海申能物业管理有限公司
48,上南花城,https://shanghai.anjuke.com/community/view/1025894,31.184009000000003,121.498359,公寓,0.80元/平米/月,暂无数据,暂无数据,2002年,暂无数据,1.93,45%(高),上海浦东上南房产有限公司,上海上房物业有限公司
49,禹州金桥国际,https://shanghai.anjuke.com/community/view/911097,31.26195,121.619847,公寓,6.80元/平米/月,暂无数据,暂无数据,2009年,暂无数据,暂无数据,暂无数据,暂无数据,暂无数据
50,宜浩欧景,https://shanghai.anjuke.com/community/view/821046,30.919617,121.923675,公寓,暂无数据,暂无数据,暂无数据,2015年,暂无数据,暂无数据,暂无数据,暂无数据,暂无数据
51,文怡苑(二期),https://shanghai.anjuke.com/community/view/820812,31.147743,121.609679,公寓,0.50元/平米/月,暂无数据,暂无数据,2011年,暂无数据,1.5,40%(高),周康置业开发有限公司,上海洲建物业管理有限公司
52,鹤沙航城汇善嘉苑,https://shanghai.anjuke.com/community/view/619184,31.084481,121.61568,公寓,1.20元/平米/月,52647m²,1550户,2013年,1200,暂无数据,45%(高),上海农工商建筑有限公司,上海建盛物业服务中心
53,中虹家园,https://shanghai.anjuke.com/community/view/372121,31.288966,121.679509,公寓,1.06元/平米/月,6851m²,260户,2011年,地上停车位 地下停车库,2.3,30%(一般),上海中虹万捷房地产开发有限公司,上海虹达物业管理有限公司 
54,金桥瑞仕花园,https://shanghai.anjuke.com/community/view/616,31.261639,121.582668,公寓,4.00元/平米/月,220000m²,1200户,2008年,1000,暂无数据,56%(高),上海黄山合城置业有限公司,戴德梁行物业管理有限公司
55,财富海景花园,https://shanghai.anjuke.com/community/view/6,31.231283,121.515535,公寓,6.00元/平米/月,暂无数据,暂无数据,2006年,650,暂无数据,暂无数据,上海东闻房地产有限公司,仲量联行物业
56,双秀西园B区,https://shanghai.anjuke.com/community/view/819711,31.127118,121.567971,公寓,0.68元/平米/月,暂无数据,暂无数据,2003年,暂无数据,1.38,42%(高),上海周康房地产有限公司,周房物业
57,陆家嘴壹号院,https://shanghai.anjuke.com/community/view/804748,31.249838,121.532911,公寓,14.80元/平米/月,暂无数据,暂无数据,2018年,暂无数据,2.5,35%(一般),暂无数据,第一太平戴维斯物业顾问(上海)有限公司
58,地产尚海郦景,https://shanghai.anjuke.com/community/view/781047,31.246286,121.542108,公寓,1.00元/平米/月,暂无数据,暂无数据,2017年,暂无数据,2.5,35%(一般),上海地产（集团）有限公司,通昌物业
59,依水园(一期),https://shanghai.anjuke.com/community/view/761430,31.128425,121.51641,公寓,1.26元/平米/月,暂无数据,暂无数据,2015年,暂无数据,3,35%(一般),上海静安地产集团有限公司,暂无信息
60,万科海上传奇,https://shanghai.anjuke.com/community/view/537363,31.164059,121.574179,公寓,3.40元/平米/月,250000m²,1172户,2014年,3060,2,45%(高),上海地杰置业有限公司,上海万科物业管理有限公司
61,银良公寓,https://shanghai.anjuke.com/community/view/13954,31.210591,121.555719,公寓,1.00元/平米/月,20000m²,164户,1997年,30,1.3,45%(高),上海银厦房地产公司,上海颐人物业管理有限公司
62,鹏欣绿苑,https://shanghai.anjuke.com/community/view/2585,31.278639,121.592231,公寓,1.00元/平米/月,450000m²,1500户,2000年,450,1.75,51%(高),上海鹏欣（集团）有限公司,上海春川物业管理有限公司
63,万科新里程,https://shanghai.anjuke.com/community/view/2099,31.16586400000001,121.536632,公寓,2.20元/平米/月,185328m²,2700户,2007年,2100,1.5,50%(高),万科集团,上海万科物业管理有限公司
64,阳光花城(公寓),https://shanghai.anjuke.com/community/view/659,31.21405,121.62972,公寓,2.00元/平米/月,200000m²,1327户,2007年,1099,1.59,37%(一般),上海德尚房地产开发有限公司,上钢物业管理有限公司
65,陆家嘴美丽苑,https://shanghai.anjuke.com/community/view/102,31.241012,121.549693,公寓,2.50元/平米/月,160000m²,1036户,2006年,910,2.1,50%(高),上海陆洋经济联合发展有限公司,上海陆家嘴物业管理有限公司
66,世茂滨江花园(北区),https://shanghai.anjuke.com/community/view/27,31.229112,121.520101,公寓,5.00元/平米/月,暂无数据,暂无数据,2003年,20,2.9,50%(高),上海世茂房地产有限公司,世茂物业
67,菊园,https://shanghai.anjuke.com/community/view/12,31.233983,121.520022,公寓,2.98元/平米/月,150000m²,1100户,2000年,320,暂无数据,50%(高),上海浦东新翔房地产有限公司,新翔物业
68,依水园(二期),https://shanghai.anjuke.com/community/view/866842,31.12740100000001,121.515708,公寓,0.80元/平米/月,暂无数据,暂无数据,暂无数据,暂无数据,暂无数据,暂无数据,暂无数据,依水园物业管理处
69,仁恒滨江园(一二期),https://shanghai.anjuke.com/community/view/866742,31.234503000000004,121.513463,公寓,2.50元/平米/月,暂无数据,暂无数据,2003年,暂无数据,3,60%(高),上海仁恒房地产有限公司,上海仁恒物业管理有限公司
70,东方城市花园(二期),https://shanghai.anjuke.com/community/view/638815,31.204784000000004,121.531753,公寓,1.80元/平米/月,460000m²,3600户,2005年,1500,1.75,40%(高),上海由由（集团）股份有限公司,上海由由物业管理有限公司
71,万科翡翠滨江(一期),https://shanghai.anjuke.com/community/view/612944,31.250202,121.543602,公寓,9.60元/平米/月,206480m²,438户,2015年,928,2.76,30%(一般),上海祥大房地产发展有限公司,上海万科物业服务有限公司
72,鹤沙航城昱丽家园,https://shanghai.anjuke.com/community/view/559661,31.087181,121.59797,公寓,1.50元/平米/月,暂无数据,暂无数据,2014年,地下停车位99个,暂无数据,40%(高),暂无数据,旺都物业管理有限公司
73,金沁苑(南区),https://shanghai.anjuke.com/community/view/506265,31.087526,121.606016,公寓,1.07元/平米/月,360000m²,3260户,2012年,2000个,暂无数据,35%(一般),金沁苑房地产开发有限公司,上海捷艾尔物业公司
74,象屿鼎城(公寓),https://shanghai.anjuke.com/community/view/405732,31.193408,121.692255,公寓,2.00元/平米/月,85000m²,669户,2013年,别墅都有的,1.5,30%(一般),上海象屿鼎城有限公司,上海同进物业服务有限公司
75,海尚乐苑,https://shanghai.anjuke.com/community/view/297891,31.12095,121.609395,公寓,1.20元/平米/月,暂无数据,暂无数据,2010年,800,1.5,25%(一般),上海雨润房地产开发有限公司,上海豫园物业管理有限公司
76,海尚康庭,https://shanghai.anjuke.com/community/view/14852,31.132774,121.606158,公寓,1.00元/平米/月,44865m²,613户,2007年,385,1.5,35%(一般),上海建工集团,豫园物业管理有限公司
77,金桥湾清水苑(一期),https://shanghai.anjuke.com/community/view/11620,31.26656,121.601136,公寓,0.62元/平米/月,240000m²,2787户,1998年,937,1.45,46%(高),上海金桥出口加工区房地产发展有限公司,安居物业
78,绿洲康城亲水湾,https://shanghai.anjuke.com/community/view/11159,31.158304,121.590339,公寓,1.50元/平米/月,4323888m²,7000户,2010年,4142,1.5,44%(高),上海振龙房地产有限公司,上海中远物业管理发展有限公司
79,天台星城,https://shanghai.anjuke.com/community/view/7718,31.12605,121.555918,公寓,0.50元/平米/月,160000m²,690户,2005年,680,1.3,35%(一般),上海天台恒星房地产经营开发有限公司,上海天台物业管理有限公司
80,金恒小区,https://shanghai.anjuke.com/community/view/5968,31.190532,121.543446,公寓,0.50元/平米/月,64000m²,290户,1995年,68,2,35%(一般),上海建工集团,上海沪西物业管理有限公司
81,广洋华景苑,https://shanghai.anjuke.com/community/view/2105,31.248269,121.566161,公寓,2.00元/平米/月,65000m²,556户,暂无数据,350,暂无数据,暂无数据,暂无数据,上海理家物业管理有限公司
82,碧云新天地家园(二期),https://shanghai.anjuke.com/community/view/1624,31.26807,121.594801,公寓,1.85元/平米/月,240000m²,1640户,2002年,510地下车位,2.4,40%(高),上海金桥出口加工区开发股份有限公司,上海欣城物业有限公司
83,花木苑,https://shanghai.anjuke.com/community/view/355,31.216289,121.54984,公寓,0.80元/平米/月,300000m²,1600户,2001年,400,1.6,40%(高),上海鑫荣房地产综合开发有限公司,花木物业公司
84,九间堂别墅,https://shanghai.anjuke.com/community/view/92,31.228411,121.568836,别墅,6.00元/平米/月,24298m²,46户,2007年,50,0.28,60%(高),上海证大三角洲置业有限公司,上海证大物业管理有限公司
85,凯佳公寓(二期),https://shanghai.anjuke.com/community/view/877067,31.18203,121.70597,公寓,暂无数据,暂无数据,暂无数据,暂无数据,暂无数据,暂无数据,暂无数据,上海浦东山佳实业有限公司,上海君仕物业管理有限公司
86,证大家园(三期),https://shanghai.anjuke.com/community/view/820523,31.286932,121.602798,公寓,1.55元/平米/月,暂无数据,暂无数据,2006年,暂无数据,1.31,45%(高),上海证大房地产开发有限公司,上海科瑞物业管理发展有限公司
87,华钜御庭(二期公寓),https://shanghai.anjuke.com/community/view/818342,31.061909000000004,121.781179,公寓,1.63元/平米/月,暂无数据,暂无数据,2010年,暂无数据,暂无数据,40%(高),上海颐和置业有限公司,上海鑫源物业经营管理有限公司
88,绿都绣云里,https://shanghai.anjuke.com/community/view/804414,31.11505,121.717256,公寓,3.80元/平米/月,暂无数据,暂无数据,暂无数据,暂无数据,2,35%(一般),上海迪南房地产开发有限公司,绿都物业服务有限公司
89,凌桥景园,https://shanghai.anjuke.com/community/view/658172,31.366579,121.537024,公寓,1.20元/平米/月,暂无数据,暂无数据,2014年,暂无数据,暂无数据,35%(一般),上海五隆置业发展有限公司,潼港物业
90,新高苑佳园,https://shanghai.anjuke.com/community/view/637197,31.295963,121.623963,公寓,1.50元/平米/月,暂无数据,暂无数据,2010年,暂无数据,2,35%(一般),上海外高桥新市镇开发管理有限公司,信汇物业
91,阳光城愉景湾,https://shanghai.anjuke.com/community/view/630843,31.182825,121.709898,公寓,3.00元/平米/月,139613m²,1306户,2016年,981    	比例1:1.05,2,35%(一般),上海迅腾博房地产开发有限公司,阳光城物业服务(福建)有限公司上海分公司
92,金桥和苑,https://shanghai.anjuke.com/community/view/407805,31.259493,121.599044,公寓,0.75元/平米/月,39840m²,368户,2011年,地上车位共150个。,1.6,40%(高),上海金桥（集团）有限公司,上海欣城物业有限公司
93,御沁园(东区公寓),https://shanghai.anjuke.com/community/view/397388,31.108071,121.581995,公寓,2.00元/平米/月,347942m²,175户,2013年,178,1.3,35%(一般),上海荣启置业有限公司,家利物业管理(上海)有限公司
94,锦绣华都,https://shanghai.anjuke.com/community/view/219208,31.161016,121.587832,公寓,1.75元/平米/月,199285m²,1578户,2010年,1014,1.73,50%(高),上海越州置业有限公司,上海枫宇物业管理有限公司
95,天台别韵,https://shanghai.anjuke.com/community/view/209842,31.126784000000004,121.558564,公寓,1.70元/平米/月,55000m²,1300户,2009年,340,1.54,35%(一般),上海天台恒星房地产开发有限公司,上海天台物业有限公司
96,阳光城市家园,https://shanghai.anjuke.com/community/view/193920,31.277339,121.620338,公寓,0.80元/平米/月,4200m²,600户,2009年,400,2,35%(一般),阳光欧洲城投资有限公司,上海伟发物业
97,万科金色里程(公寓),https://shanghai.anjuke.com/community/view/121483,31.16758,121.534047,公寓、别墅,3.20元/平米/月,暂无数据,暂无数据,2009年,700,1.5,50%(高),上海天亿置业发展有限公司,上海万科物业管理有限公司
98,金地未未来,https://shanghai.anjuke.com/community/view/120217,31.31268,121.594133,公寓,2.60元/平米/月,154212m²,1611户,2009年,1025,1.6,36%(一般),上海深翔房地产开发有限公司,上海金地物业服务有限公司
99,江临天下,https://shanghai.anjuke.com/community/view/75566,31.232157,121.518233,公寓,2.90元/平米/月,暂无数据,暂无数据,2003年,暂无数据,3.2,45%(高),上海浦东新翔房地产开发有限公司,宝丽物业
100,银丰苑,https://shanghai.anjuke.com/community/view/11962,31.272776,121.696745,公寓,0.50元/平米/月,180000m²,1942户,2007年,地上停车位,1.5,30%(一般),上海曹路房地产开发有限公司,上海建达物业有限公司
101,艺泰安邦花园,https://shanghai.anjuke.com/community/view/7715,31.066885,121.715097,公寓,1.40元/平米/月,550000m²,4000户,2008年,600,1.5,45%(高),上海刚泰房地产发展有限公司,上海文化物业有限公司
102,三林安居苑,https://shanghai.anjuke.com/community/view/1659,31.152,121.532269,公寓,0.45元/平米/月,90000m²,2200户,1998年,80,1.1,40%(高),新世纪安居苑开发商前通置业公司,上海安居物业管理有限公司
103,雪野家园,https://shanghai.anjuke.com/community/view/111,31.189373,121.506816,公寓,0.80元/平米/月,80000m²,120户,2003年,1：1.5,暂无数据,35%(一般),上海中星（集团）有限公司,上海申城物业有限公司
104,环球翡翠湾花园,https://shanghai.anjuke.com/community/view/87,31.159622,121.5389,公寓,2.18元/平米/月,100000m²,1200户,2006年,地下477、地上350个,1.5,42%(高),上海浦发振丰房地产发展有限公司,第一太平戴维斯物业顾问(上海)有限公司
105,联洋年华,https://shanghai.anjuke.com/community/view/33,31.231501,121.56062,公寓,1.00元/平米/月,暂无数据,暂无数据,2004年,100,2.86,51%(高),上海联洋置业责任有限公司,联洋港力物业
106,湾流域城(金地湾流域一期),https://shanghai.anjuke.com/community/view/1025816,31.155273,121.525619,公寓,2.80元/平米/月,暂无数据,暂无数据,2010年,暂无数据,1.5,35%(一般),上海金地经久房地产发展有限公司,上海金地物业服务有限公司
107,仁恒公园世纪,https://shanghai.anjuke.com/community/view/877175,31.215162,121.540364,公寓,4.00元/平米/月,暂无数据,暂无数据,暂无数据,暂无数据,2.66,39%(一般),上海仁恒置业发展有限公司,上城物业
108,仁恒河滨城(二期),https://shanghai.anjuke.com/community/view/818748,31.236763,121.57222,公寓,3.50元/平米/月,暂无数据,暂无数据,2005年,暂无数据,2.5,43%(高),上海仁恒房地产有限公司,上海仁恒物业管理有限公司
109,金钻苑(北区),https://shanghai.anjuke.com/community/view/818226,31.285693,121.687192,公寓,1.10元/平米/月,暂无数据,暂无数据,2002年,暂无数据,1.5,40%(高),上海闵行协和房地产经营有限公司,上海庆云物业管理有限公司
110,绿地东上海海富城市花园(二期),https://shanghai.anjuke.com/community/view/817488,31.130748,121.577194,公寓,1.80元/平米/月,暂无数据,暂无数据,2014年,暂无数据,1.65,47%(高),上海富润房地产发展有限公司,上海科瑞物业管理发展有限公司
111,浦东虹桥花园,https://shanghai.anjuke.com/community/view/817485,31.232412,121.570871,公寓,1.95元/平米/月,暂无数据,暂无数据,2004年,100,2.4,40%(高),上海虹桥经济技术开发区联合发展有限公司,虹桥经济技术开发联合物业
112,高盛家园,https://shanghai.anjuke.com/community/view/658171,31.368993,121.539257,公寓,1.50元/平米/月,暂无数据,暂无数据,2014年,暂无数据,暂无数据,30%(一般),暂无数据,潼港物业
113,九龙仓兰廷,https://shanghai.anjuke.com/community/view/655475,31.117117,121.597966,公寓,2.90元/平米/月,97938m²,841户,2015年,暂无数据,2,35%(一般),上海清源房地产开发有限公司,九龙仓物业管理有限公司
114,阳光城丽景湾,https://shanghai.anjuke.com/community/view/651223,31.102707,121.63797,公寓,4.00元/平米/月,50130m²,304户,2015年,270,1.2,35%(一般),上海豪建泽房地产开发有限公司,阳光城物业服务(福建)有限公司上海分公司
115,鹤沙航城航武嘉园(中区),https://shanghai.anjuke.com/community/view/595431,31.081192,121.602006,公寓,1.08元/平米/月,187100m²,2300户,2012年,本项目规划建设机动停车位1016个，其中地上停车位728个，地下停车位288个,1.77,35%(一般),沪武房地产有限责任公司,武房地产有限责任公司
116,长泰公馆(公寓),https://shanghai.anjuke.com/community/view/578086,31.032689,121.596301,公寓,2.90元/平米/月,260000m²,1208户,2015年,750,2.89,55%(高),上海豪全房地产开发有限公司,上海长宜物业管理有限公司
117,合生时代锦苑(合生前滩1号),https://shanghai.anjuke.com/community/view/571615,31.156491,121.495928,公寓,4.50元/平米/月,101401m²,472户,2015年,458,1.7,40%(高),合生三麟房地产开发有限公司,广东康景物业服务有限公司上海分公司
118,佳伟景苑,https://shanghai.anjuke.com/community/view/535586,31.289868,121.681126,公寓,1.10元/平米/月,168135m²,2007户,2013年,714,1.93,30%(一般),上海曹路城镇建设投资发展有限公司,昌悦物业公司
119,星金家园,https://shanghai.anjuke.com/community/view/446190,31.281294,121.68458400000002,公寓,1.11元/平米/月,94861m²,1421户,2012年,568,暂无数据,30%(一般),上海地产中星曹路基地开发有限公司,浦东东龙物业有限公司
120,张江汤臣豪园三期,https://shanghai.anjuke.com/community/view/394666,31.205183,121.60448,公寓,1.80元/平米/月,200000m²,1411户,2011年,1150,1.6,40%(高),上海张江汤臣集团有限公司,上海东湖物业管理有限公司
121,城市经典铭筑,https://shanghai.anjuke.com/community/view/344397,31.217436,121.62033,公寓,3.00元/平米/月,6520m²,200户,2007年,地上停车位,暂无数据,32%(一般),上海鹏远房地产开发有限公司,春申物业管理有限公司
122,绿地东岸涟城,https://shanghai.anjuke.com/community/view/189991,30.890722,121.922902,公寓,1.00元/平米/月,330000m²,3598户,2008年,2509个,1.04,35%(一般),绿地集团,上海帮众物业经营管理有限公司
123,紫晶苑,https://shanghai.anjuke.com/community/view/13235,31.181176,121.63014,公寓,1.30元/平米/月,38000m²,890户,2008年,126,1.2,40%(高),上海建工集团,上海建工物业管理有限公司
124,浦江东旭公寓(东区),https://shanghai.anjuke.com/community/view/12592,31.299172,121.592494,公寓,1.10元/平米/月,125000m²,1200户,1999年,1200,2,38%(一般),上海虹阳置业有限公司,高航物业
125,绿地康桥新苑,https://shanghai.anjuke.com/community/view/7712,31.144438,121.57287,公寓,1.25元/平米/月,300000m²,3200户,2005年,1650,1.2,40%(高),上海康宸房地产开发有限公司,上海绿地物业服务有限公司、银顺物业
126,东陆新村五街坊,https://shanghai.anjuke.com/community/view/6061,31.284403,121.599295,公寓,0.70元/平米/月,56000m²,780户,2000年,191,暂无数据,35%(一般),上海城投置业管理有限公司,上海安居物业管理有限公司
127,金鹏苑,https://shanghai.anjuke.com/community/view/2696,31.261986,121.596892,公寓,0.60元/平米/月,84000m²,852户,1997年,300,1.3,30%(一般),上海金鹏房地产开发有限公司,上海凌浦物业有限公司
128,中房樱桃苑,https://shanghai.anjuke.com/community/view/2106,31.154227,121.531687,公寓,2.20元/平米/月,106564m²,800户,2007年,955,1.5,56%(高),上海中房置业股份有限公司,上海申能物业管理有限公司
129,胡姬花园,https://shanghai.anjuke.com/community/view/389,31.213733,121.593234,公寓,1.20元/平米/月,40000m²,860户,2007年,66,2.2,49%(高),上海胡姬花园房地产开发有限公司,上海东湖物业管理有限公司
130,碧云东方公寓,https://shanghai.anjuke.com/community/view/207,31.24852000000001,121.596733,公寓,3.40元/平米/月,52000m²,396户,2005年,196,暂无数据,35%(一般),上海星际房地产发展有限公司,上海市星际物业有限公司
131,东方城市公寓,https://shanghai.anjuke.com/community/view/175,31.252142,121.55248600000002,公寓,2.00元/平米/月,70000m²,507户,2005年,300,2.4,45%(高),上海东扬房地产有限公司,上海联讯物业管理有限公司
132,龙阳花苑,https://shanghai.anjuke.com/community/view/114,31.205112,121.524088,公寓,1.00元/平米/月,53000m²,418户,2004年,160,1.9,40%(高),上海精文置业（集团）有限公司,上海东方明珠物业管理有限公司
133,仁恒河滨城(一期),https://shanghai.anjuke.com/community/view/106,31.234035,121.573268,公寓,3.50元/平米/月,720000m²,4300户,2004年,2800,2.3,43%(高),仁恒置地集团有限公司,仁恒物业
134,俐马花园,https://shanghai.anjuke.com/community/view/105,31.239615,121.58792,别墅,6.80元/平米/月,111323m²,179户,2006年,临时和自有车库,0.5,45%(高),上海俐马向荣碧云房地产有限公司,仲量联行物业管理有限公司
135,翰城国际,https://shanghai.anjuke.com/community/view/93,31.160685,121.51641200000002,公寓,1.70元/平米/月,116000m²,1380户,2004年,330,1.97,40%(高),上海恒大房产股份有限公司,上海怡和高力物业公司
136,上南九村,https://shanghai.anjuke.com/community/view/990133,31.175806,121.504745,公寓,0.80元/平米/月,暂无数据,暂无数据,1995年,暂无数据,2,暂无数据,上南开发集团,上海上南物业公司
137,万科金域澜湾,https://shanghai.anjuke.com/community/view/944548,30.921373,121.930474,公寓,3.50元/平米/月,暂无数据,暂无数据,2017年,暂无数据,2.33,35%(一般),暂无数据,万科物业
138,万科海上传奇(三期),https://shanghai.anjuke.com/community/view/877186,31.164464,121.573443,公寓,1.20元/平米/月,暂无数据,暂无数据,暂无数据,暂无数据,暂无数据,暂无数据,上海万科房地产开发有限公司,上海万科物业管理有限公司
139,金桥商务公寓,https://shanghai.anjuke.com/community/view/877059,31.25454,121.606053,公寓,暂无数据,暂无数据,暂无数据,暂无数据,暂无数据,暂无数据,暂无数据,暂无数据,暂无数据
140,阳光城MODO,https://shanghai.anjuke.com/community/view/868538,31.219795,121.66338799999998,暂无数据,5.00元/平米/月,暂无数据,暂无数据,2015年,暂无数据,2.5,30%(一般),阳光城,暂无数据
141,士韵家园(二期),https://shanghai.anjuke.com/community/view/866777,31.130513,121.503715,公寓,0.50元/平米/月,暂无数据,暂无数据,2014年,暂无数据,暂无数据,暂无数据,暂无数据,上海浦东物业管理公司
142,新高苑春园,https://shanghai.anjuke.com/community/view/821236,31.297726,121.626458,公寓,0.80元/平米/月,暂无数据,暂无数据,2012年,暂无数据,2.2,35%(一般),上海外高桥新市镇开发管理有限公司,信汇物业
143,尚东国际名园(二期),https://shanghai.anjuke.com/community/view/819432,31.16763,121.518043,公寓,2.00元/平米/月,暂无数据,暂无数据,2008年,暂无数据,1.14,50%(高),上海中万置业投资有限公司,第一太平戴维斯物业管理有限公司
144,金源商住大厦,https://shanghai.anjuke.com/community/view/818212,31.278283,121.603284,公寓,1.35元/平米/月,暂无数据,暂无数据,2003年,暂无数据,暂无数据,40%(高),上海金山元房地产发展有限公司,上海海珠物业管理有限公司
145,华府188,https://shanghai.anjuke.com/community/view/656633,31.187778,121.705499,公寓,4.00元/平米/月,37537m²,188户,2016年,212,2,35%(一般),上海宸盛置业有限公司,上海绿城物业有限公司
146,颐谷南苑,https://shanghai.anjuke.com/community/view/637263,31.104188,121.608635,公寓,1.20元/平米/月,暂无数据,暂无数据,2013年,暂无数据,暂无数据,35%(一般),暂无数据,无
147,鹤沙航城东茗苑(中区),https://shanghai.anjuke.com/community/view/570172,31.08057800000001,121.608824,公寓,1.08元/平米/月,86530m²,5500户,2000年,121,1.9,35%(一般),农工商房地产,上海农工商旺都物业管
148,大唐盛世花园(二期),https://shanghai.anjuke.com/community/view/565241,31.215327,121.565505,公寓,2.15元/平米/月,400000m²,700户,2004年,320,1,44%(高),上海盛唐置业有限公司,盛唐物业
149,浦东新世纪花苑(三期),https://shanghai.anjuke.com/community/view/565059,31.178414,121.485962,公寓,2.70元/平米/月,70000m²,500户,2002年,300,暂无数据,35%(一般),上海新世纪创业集团有限公司,上海新世纪物业管理有限公司
150,城市经典高迪,https://shanghai.anjuke.com/community/view/491808,31.2193,121.624676,公寓,2.38元/平米/月,149897m²,858户,2006年,300个,暂无数据,35%(一般),上海鹏远房地产开发有限公司,上海春川物业管理有限公司
151,逸翠公馆,https://shanghai.anjuke.com/community/view/370134,31.186949,121.519332,公寓,0.35元/平米/月,50000m²,576户,2010年,120,3.61,35%(一般),上海众天房产有限公司,南码头物业管理有限公司
152,万科五玠坊,https://shanghai.anjuke.com/community/view/370121,31.162123,121.52316100000002,公寓,5.85元/平米/月,18600m²,350户,2006年,800,1,40%(高),上海恒大房地产股份有限公司,上海万科物业
153,雪野家园,https://shanghai.anjuke.com/community/view/6030,31.189339,121.506726,别墅,1.50元/平米/月,100000m²,暂无数据,2002年,总数100　 地上:100,暂无数据,38%(一般),上海中星（集团）有限公司,上海联讯物业
154,市政大楼,https://shanghai.anjuke.com/community/view/5674,31.238829,121.530682,公寓,暂无数据,58000m²,680户,1992年,200,3.5,25%(一般),市政府,上海华联物业
155,清溪苑,https://shanghai.anjuke.com/community/view/2522,31.349249,121.579686,公寓,1.00元/平米/月,12550m²,94户,2004年,45,2.1,20%(一般),上海潼港置业有限公司,高博物业
156,源城锦苑,https://shanghai.anjuke.com/community/view/1009,31.155493,121.505248,公寓,1.10元/平米/月,60000m²,342户,2005年,578,1.4,45%(高),上海源众房地产有限公司,上海中凯物业有限公司
157,荣城花苑,https://shanghai.anjuke.com/community/view/370,31.248041,121.524212,公寓,1.00元/平米/月,6319m²,1030户,1996年,156,2.3,30%(一般),世茂房地产控股有限公司,陆家嘴物业
158,怡东花园(别墅),https://shanghai.anjuke.com/community/view/241,31.209463,121.5335,别墅,2.40元/平米/月,140000m²,1250户,2000年,240,1.75,45%(高),上海怡东建设发展有限公司,新加坡宏腾物业管理有限公司
159,仁恒滨江园(三期),https://shanghai.anjuke.com/community/view/13,31.235671000000004,121.516649,公寓,2.00元/平米/月,暂无数据,暂无数据,2003年,700,3,60%(高),上海仁恒房地产有限公司,上海仁恒物业管理有限公司
160,东方鸿璟,https://shanghai.anjuke.com/community/view/1026819,31.106412,121.767181,公寓,3.30元/平米/月,暂无数据,暂无数据,2016年,暂无数据,1.4,36%(一般),上海航亭置业有限公司,上海绿城物业有限公司
161,海桐苑,https://shanghai.anjuke.com/community/view/1026108,31.2123,121.557426,公寓,1.00元/平米/月,暂无数据,暂无数据,1999年,暂无数据,1.2,35%(一般),众城实业集团有限公司,上海东莲物业
162,汇丽苑,https://shanghai.anjuke.com/community/view/1026075,31.131788,121.593393,公寓,0.45元/平米/月,暂无数据,暂无数据,2005年,暂无数据,1.14,48%(高),上海永丽房地产有限公司,上海高建物业有限公司
163,鹏丰苑,https://shanghai.anjuke.com/community/view/1025927,31.177006,121.56227,公寓,1.50元/平米/月,暂无数据,暂无数据,2011年,暂无数据,1.2,35%(一般),上海鹏丰置业有限公司,上海鹏丰物业管理有限公司
164,兴业嘉园,https://shanghai.anjuke.com/community/view/1025788,31.228589000000003,121.5391,公寓,2.00元/平米/月,暂无数据,暂无数据,2001年,暂无数据,4.5,36%(一般),上海兴业投资发展有限公司,上海潍坊物业
165,金杨新村四街坊,https://shanghai.anjuke.com/community/view/990431,31.25090800000001,121.57946,公寓,0.50元/平米/月,暂无数据,暂无数据,1995年,暂无数据,2,暂无数据,上海建工集团,上海陆家嘴物业管理有限公司
166,恒大小区,https://shanghai.anjuke.com/community/view/990200,31.175593,121.516064,公寓,0.30元/平米/月,暂无数据,暂无数据,1995年,暂无数据,1.8,28%(一般),上海恒大房地产开发经营有限公司,上海恒大物业管理有限公司
167,香山新村东北街坊,https://shanghai.anjuke.com/community/view/990093,31.24832,121.576499,公寓,0.60元/平米/月,暂无数据,暂无数据,1995年,暂无数据,1.8,35%(一般),上海中星(集团)有限公司,欣晟物业管理有限公司
168,绿地东岸涟城(公寓),https://shanghai.anjuke.com/community/view/877146,30.888172,121.924922,公寓,0.99元/平米/月,暂无数据,暂无数据,暂无数据,暂无数据,暂无数据,暂无数据,上海欣固物业管理发展有限公司,上海欣固物业管理发展有限公司
169,金桥智汇公馆,https://shanghai.anjuke.com/community/view/868529,31.278365,121.62308,公寓,7.00元/平米/月,暂无数据,暂无数据,2014年,暂无数据,暂无数据,35%(一般),上海星力资产经营管理有限公司,上海联讯物业
170,金桥湾清水苑(三期),https://shanghai.anjuke.com/community/view/866584,31.26752,121.601065,公寓,0.65元/平米/月,暂无数据,暂无数据,1998年,暂无数据,1.45,46%(高),上海金桥出口加工区房地产发展有限公司,安居物业
171,博士后公寓,https://shanghai.anjuke.com/community/view/866445,31.201701,121.590272,公寓,暂无数据,暂无数据,暂无数据,暂无数据,暂无数据,暂无数据,暂无数据,暂无数据,暂无数据
172,龙科公寓,https://shanghai.anjuke.com/community/view/819457,31.196597,121.56097,公寓,1.20元/平米/月,暂无数据,暂无数据,2000年,暂无数据,1.2,30%(一般),上海泰龙房地产发展有限公司,金龙物业管理有限公司
173,合生东郊别墅(二期),https://shanghai.anjuke.com/community/view/817618,31.232138,121.610749,别墅,8.00元/平米/月,暂无数据,暂无数据,2010年,暂无数据,0.25,50%(高),上海御泰房地产发展有限公司,东湖物业管理有限公司
174,东原逸墅,https://shanghai.anjuke.com/community/view/787564,31.063855,121.780993,别墅,2.90元/平米/月,暂无数据,暂无数据,2017年,暂无数据,1.8,40%(高),上海天同房地产开发有限公司,重庆东原物业管理公司
175,九龙仓滨江壹十八,https://shanghai.anjuke.com/community/view/778669,31.21960300000001,121.523175,公寓,12.00元/平米/月,181545m²,472户,2017年,700,2.5,35%(一般),上海莉源房地产开发有限公司（九龙仓）,九龙仓物业
176,美容新村,https://shanghai.anjuke.com/community/view/658248,31.045144,121.844057,公寓,0.50元/平米/月,暂无数据,暂无数据,暂无数据,暂无数据,暂无数据,暂无数据,上海南汇市政建设有限公司,上海南汇老港镇居委会
177,中邦大都会,https://shanghai.anjuke.com/community/view/655073,31.142312,121.579567,公寓,1.50元/平米/月,54000m²,670户,2016年,800,2.3,35%(一般),中邦置业集团有限公司,中邦物业管理有限公司
178,仁恒东郊花园,https://shanghai.anjuke.com/community/view/654505,31.231517,121.677003,公寓,5.60元/平米/月,180000m²,1194户,2017年,1333,1.4,35%(一般),上海仁恒兴唐置业有限公司,上海仁恒物业管理有限公司
179,益丰新村,https://shanghai.anjuke.com/community/view/651013,31.203062,121.63823,公寓,0.35元/平米/月,暂无数据,暂无数据,1995年,200,1.6,40%(高),上海银鹏房地产实业公司, *物业公司名 张江物业发展管理有限公司
180,金群苑(南区),https://shanghai.anjuke.com/community/view/635099,31.293189,121.677286,公寓,1.20元/平米/月,暂无数据,暂无数据,2015年,300,1.8,40%(高),暂无数据,暂无数据
181,莲康苑,https://shanghai.anjuke.com/community/view/628018,31.177888,121.569533,公寓,0.80元/平米/月,暂无数据,暂无数据,2014年,暂无数据,1.2,30%(一般),界龙房地产开发公司,上海东莲物业管理有限公司
182,千汇苑三村,https://shanghai.anjuke.com/community/view/617247,31.118728000000004,121.770492,公寓,1.00元/平米/月,20000m²,1876户,2008年,地上车位,1.7,36%(一般),上海祝桥新镇投资发展有限公司,祝桥镇物业有限公司
183,长青教师公寓,https://shanghai.anjuke.com/community/view/615399,31.17995800000001,121.493662,公寓,0.80元/平米/月,暂无数据,暂无数据,2002年,20,4.5,45%(高),上钢,上钢物业公司
184,陆家嘴花园(二期),https://shanghai.anjuke.com/community/view/565225,31.237040000000004,121.548848,公寓,2.20元/平米/月,12m²,1108户,2000年,陆家嘴峰会共有停车位898个。租价分地上是150元，地下是500元.,1.87,36%(一般),上海陆家嘴金融贸易区开发股份有限公司,上海陆家嘴物业管理有限公司
185,东方城市花园(一期),https://shanghai.anjuke.com/community/view/544616,31.208798,121.527162,公寓,1.50元/平米/月,700000m²,3500户,2003年,2100,1.79,48%(高),上海东方城市花园有限公司,上海由由物业管理有限公司
186,星晓家园,https://shanghai.anjuke.com/community/view/489801,31.283927,121.682235,公寓,1.11元/平米/月,175461m²,2786户,2012年,836,2.1,43%(高),上海中星（集团）有限公司,东龙物业管理有限公司
187,金葵新城(西区),https://shanghai.anjuke.com/community/view/467222,31.246021,121.634069,公寓,1.50元/平米/月,暂无数据,暂无数据,2012年,暂无数据,暂无数据,30%(一般),上海土地控股投资有限公司,金葵物业管理有限公司
188,尚东鼎,https://shanghai.anjuke.com/community/view/407483,31.165084000000004,121.519504,别墅,2.80元/平米/月,13m²,356户,2011年,502,1.14,50%(高),上海中万置业投资有限公司,龙湖物业管理有限公司
189,张江汤臣豪园二期,https://shanghai.anjuke.com/community/view/394660,31.206734,121.604177,公寓,1.80元/平米/月,160000m²,332户,2007年,980,1.4,35%(一般),上海汤臣集团有限公司,东湖物业
190,东郊壹号,https://shanghai.anjuke.com/community/view/370176,31.227787,121.606699,别墅,6.00元/平米/月,48000m²,26户,2011年,310,0.25,60%(高),上海东珠置业有限责任公司,上海紫泰物业管理有限公司
191,凯德嘉博名邸,https://shanghai.anjuke.com/community/view/370155,31.191588,121.528805,公寓,1.50元/平米/月,70528m²,539户,2013年,285个地下停车位,1.8,38%(一般),新越置业（上海）有限公司,上海怡东物业管理有限公司
192,天之骄子创业公寓,https://shanghai.anjuke.com/community/view/370139,31.220548,121.634355,公寓,0.80元/平米/月,90000m²,1245户,2016年,418,2,35%(一般),上海市张江高科技园区开发公司,上海新华物业有限公司
193,大华锦绣华城十五街区,https://shanghai.anjuke.com/community/view/363548,31.181731,121.533971,公寓,0.50元/平米/月,217533m²,1470户,2013年,892,暂无数据,35%(一般),上海锦绣华城房地产开发有限公司,上海浦华物业管理有限公司
194,保利林语溪,https://shanghai.anjuke.com/community/view/217807,31.137586,121.543716,公寓,2.20元/平米/月,暂无数据,暂无数据,2010年,500,1.2,35%(一般),上海保利建雍房地产有限公司,广州保利物业管理有限公司上海分公司
195,金领国际,https://shanghai.anjuke.com/community/view/189900,31.260882,121.687568,别墅,2.10元/平米/月,180000m²,2000户,2009年,320,1.5,35%(一般),上海天歌置业有限公司,上海隆庆物业管理有限公司
196,天和湖滨家园,https://shanghai.anjuke.com/community/view/188470,31.184552000000004,121.760502,公寓,1.50元/平米/月,252000m²,1616户,2009年,地面307 地下807,1.2,40%(高),上海丞泰房地产开发有限公司,上海浦东东龙物业有限公司
197,双秀家园,https://shanghai.anjuke.com/community/view/114454,31.129381,121.571094,公寓,0.68元/平米/月,464300m²,3791户,2003年,700,1.38,42%(高),上海康桥房地产开发经营有限公司,周房物业
198,高科西路2847弄小区,https://shanghai.anjuke.com/community/view/63604,31.195741,121.563557,公寓,暂无数据,暂无数据,240户,1998年,150,1.9,40%(高),上海华佳实业有限公司,无
199,东升家园(西区),https://shanghai.anjuke.com/community/view/7975,31.027277,121.609085,公寓,0.55元/平米/月,156000m²,650户,2002年,98,2.01,35%(一般),上海浦航房地产开发有限公司,环镇东路200弄
200,云二小区,https://shanghai.anjuke.com/community/view/5403,31.181376,121.514761,公寓,0.35元/平米/月,34200m²,2100户,1995年,230,1.8,30%(一般),上南众开开发集团,上海三凌物业管理有限公司
201,中大丽都,https://shanghai.anjuke.com/community/view/1704,31.278536,121.595529,公寓,1.40元/平米/月,200000m²,1074户,2003年,240,1.8,44%(高),上海中大股份有限公司,上海古北物业管理有限公司
202,东方吉苑,https://shanghai.anjuke.com/community/view/1637,31.168359,121.511973,公寓,0.50元/平米/月,13800m²,1200户,2008年,580,1.56,50%(高),上海建工集团,上海银顺物业管理有限公司
203,银泰花园,https://shanghai.anjuke.com/community/view/393,31.244695,121.584549,公寓,1.50元/平米/月,46400m²,790户,2000年,91,1.37,40%(高),上海银泰置业股份有限公司,上海银帆物业
204,百富达公寓,https://shanghai.anjuke.com/community/view/348,31.224752,121.525027,公寓,1.20元/平米/月,24000m²,900户,1998年,25,3.4,30%(一般),上海鑫隆房地产开发有限公司,上海鑫隆物业管理有限公司
205,翠竹苑,https://shanghai.anjuke.com/community/view/292,31.147865000000003,121.526427,公寓,0.45元/平米/月,9m²,1200户,1999年,568,1.5,35%(一般),上海临江房地产开发经营有限公司,上海临江物业管理有限公司
206,四季雅苑(公寓),https://shanghai.anjuke.com/community/view/246,31.223406,121.576406,公寓、别墅,10.00元/平米/月,暂无数据,暂无数据,2005年,暂无数据,0.41,55%(高),和记黄埔地产（上海）有限公司,和记黄埔地产(上海)有限公司
207,仕嘉名苑,https://shanghai.anjuke.com/community/view/144,31.218283000000003,121.537413,公寓,3.00元/平米/月,90000m²,1200户,2004年,300,1.8,35%(一般),上海中星（集团）有限公司,海都物业
208,新昌里公寓,https://shanghai.anjuke.com/community/view/44,31.18187600000001,121.517695,公寓,1.40元/平米/月,40000m²,360户,2005年,162,1.27,42%(高),上海中星（集团）有限公司,申城物业
209,澳丽花苑,https://shanghai.anjuke.com/community/view/42,31.213139,121.524887,公寓,0.80元/平米/月,200000m²,1200户,2003年,300,1.6,35%(一般),上海安宝房地产有限公司,上海怡高物业管理有限公司
210,蔚蓝海岸天科苑,https://shanghai.anjuke.com/community/view/7,31.226164,121.524514,公寓,1.00元/平米/月,30913m²,1800户,2003年,600,3.9,35%(一般),上海科房置业有限公司,置业物业
211,高南新村,https://shanghai.anjuke.com/community/view/1026126,31.347508,121.590971,公寓,0.35元/平米/月,暂无数据,暂无数据,2005年,暂无数据,暂无数据,32%(一般),上海建工集团,兴高物业
212,日月光水岸花园(公寓),https://shanghai.anjuke.com/community/view/1025878,31.220854,121.630134,公寓,1.93元/平米/月,暂无数据,暂无数据,2015年,暂无数据,暂无数据,35%(一般),上海鼎汇房地产开发有限公司,上海新张江物业管理有限公司
213,宜浩佳园,https://shanghai.anjuke.com/community/view/1025768,30.907298,121.920515,公寓,1.00元/平米/月,暂无数据,暂无数据,2013年,暂无数据,1.3,36%(一般),上海绿地湾置业有限公司,上海临港新城物业有限公司
214,印象生活广场,https://shanghai.anjuke.com/community/view/1013889,31.120971,121.599756,公寓,3.50元/平米/月,暂无数据,暂无数据,2014年,暂无数据,1.5,40%(高),上海瀛浦置业有限公司,上海圣维仕物业管理有限公司
215,罗山三村,https://shanghai.anjuke.com/community/view/990416,31.25695,121.568383,公寓,0.60元/平米/月,暂无数据,暂无数据,1995年,暂无数据,2,39%(一般),上海建工集团,上海祥和物业管理有限公司
216,梅园五街坊,https://shanghai.anjuke.com/community/view/990144,31.23792700000001,121.535752,公寓,0.80元/平米/月,暂无数据,暂无数据,1986年,暂无数据,暂无数据,暂无数据,上海建工集团,欣达物业管理有限公司
217,雪野二村,https://shanghai.anjuke.com/community/view/990069,31.187465000000003,121.504787,公寓,3.00元/平米/月,暂无数据,暂无数据,1987年,暂无数据,1.5,暂无数据,上海中凯置业有限公司,上海中凯物业公司
218,禹州蓝爵,https://shanghai.anjuke.com/community/view/911098,31.262811,121.616925,公寓,6.80元/平米/月,暂无数据,暂无数据,2009年,暂无数据,暂无数据,暂无数据,暂无数据,暂无数据
219,金沁苑(北区),https://shanghai.anjuke.com/community/view/907862,31.088833,121.605094,公寓,暂无数据,暂无数据,暂无数据,暂无数据,暂无数据,暂无数据,暂无数据,暂无数据,武房地产有限责任公司
220,香茗苑,https://shanghai.anjuke.com/community/view/877173,30.959171,121.902492,公寓,暂无数据,暂无数据,暂无数据,暂无数据,暂无数据,暂无数据,暂无数据,暂无数据,无
221,盛大天地青春里,https://shanghai.anjuke.com/community/view/868531,31.179022,121.609861,暂无数据,4.50元/平米/月,暂无数据,暂无数据,2015年,暂无数据,暂无数据,35%(一般),盛旅置业（上海）有限公司,上海上实物业管理有限公司
222,仁恒森兰雅苑(一期公寓),https://shanghai.anjuke.com/community/view/868484,31.305043,121.597257,公寓,5.00元/平米/月,暂无数据,暂无数据,2016年,暂无数据,1.8,35%(一般),上海仁恒森兰置业有限公司,上海仁恒物业管理有限公司
223,中芯花园(西区公寓),https://shanghai.anjuke.com/community/view/866875,31.222826,121.625082,公寓,1.25元/平米/月,暂无数据,暂无数据,2003年,暂无数据,1.9,暂无数据,中芯集团,中芯物业
224,士韵家园(三期),https://shanghai.anjuke.com/community/view/866776,31.129481,121.504507,公寓,0.50元/平米/月,暂无数据,暂无数据,2014年,暂无数据,暂无数据,暂无数据,暂无数据,上海浦东物业管理公司
225,玉兰香苑(二期A区),https://shanghai.anjuke.com/community/view/821333,31.201671,121.635966,公寓,0.80元/平米/月,暂无数据,暂无数据,2004年,暂无数据,暂无数据,35%(一般),上海张江房地产有限公司,上海张江物业发展公司
226,香梅花园(二期),https://shanghai.anjuke.com/community/view/821083,31.21643,121.542839,公寓,3.05元/平米/月,暂无数据,暂无数据,2004年,暂无数据,2.38,55%(高),金大元（上海）有限公司,上海香梅物业管理有限公司
227,绿地香颂(公寓),https://shanghai.anjuke.com/community/view/819607,31.137141,121.539021,公寓,2.30元/平米/月,暂无数据,暂无数据,2011年,暂无数据,1.78,50%(高),暂无数据,上海深长城物业管理有限公司
228,陆家嘴金融城人才公寓东区,https://shanghai.anjuke.com/community/view/819528,31.207003000000004,121.54186,公寓,2.00元/平米/月,暂无数据,暂无数据,暂无数据,暂无数据,暂无数据,暂无数据,暂无数据,陆家嘴物业
229,森兰名轩,https://shanghai.anjuke.com/community/view/819047,31.294903,121.597483,公寓,3.90元/平米/月,暂无数据,暂无数据,2015年,暂无数据,1.2,35%(一般),上海外高桥集团股份有限公司,上海外高桥物业管理有限公司
230,高科苑,https://shanghai.anjuke.com/community/view/817099,31.19593900000001,121.599974,公寓,1.20元/平米/月,暂无数据,暂无数据,暂无数据,暂无数据,暂无数据,暂无数据,上海张江高科技园区开发股份有限公司,上海张江高科技园区开发股份有限公司
231,德川新苑,https://shanghai.anjuke.com/community/view/801499,31.200351,121.67492,公寓,1.50元/平米/月,暂无数据,暂无数据,暂无数据,暂无数据,暂无数据,暂无数据,暂无数据,暂无数据
232,同康苑,https://shanghai.anjuke.com/community/view/725173,31.126283,121.511315,公寓,0.80元/平米/月,暂无数据,暂无数据,暂无数据,暂无数据,暂无数据,暂无数据,暂无数据,上海瑞绚企业发展有限公司物业服务中心
233,浦东朝阳新村,https://shanghai.anjuke.com/community/view/647415,30.978188,121.747385,公寓,0.40元/平米/月,暂无数据,暂无数据,暂无数据,5,1.5,26%(一般),暂无数据,无
234,城林雅苑,https://shanghai.anjuke.com/community/view/620217,31.133691,121.514616,公寓,1.15元/平米/月,3000m²,1000户,2013年,500,3,35%(一般),东方工程管理有限公司,中华企业物业管理公司
235,爵仕悦,https://shanghai.anjuke.com/community/view/583253,31.174943,121.513513,公寓,3.20元/平米/月,暂无数据,暂无数据,2006年,280,2,35%(一般),上海恒大房产股份有限公司,上海锦之嘉酒店管理有限公司
236,大唐盛世花园(一期),https://shanghai.anjuke.com/community/view/565239,31.214777,121.56278799999998,公寓,2.15元/平米/月,50000m²,730户,2008年,600,2,44%(高),上海盛唐置业有限公司,盛唐物业
237,金玉佳苑,https://shanghai.anjuke.com/community/view/487474,30.974832,121.753993,公寓,1.00元/平米/月,24131m²,暂无数据,2008年,暂无数据,1.6,30%(一般),上海浩达房地产置业有限公司,上海浩达房地产置业有限公司
238,南新西园,https://shanghai.anjuke.com/community/view/406743,31.334382,121.588222,公寓,1.50元/平米/月,暂无数据,暂无数据,2009年,500,2,30%(一般),上海永圣房地产有限公司,永久物业
239,大华锦绣华城十四街区,https://shanghai.anjuke.com/community/view/394702,31.178773,121.531721,公寓,2.60元/平米/月,48000m²,800户,2011年,500,1.39,35%(一般),大华(集团)有限公司/上海锦绣华城房地产开发有限公司,上海浦华物业管理有限公司
240,大华锦绣华城十二街区,https://shanghai.anjuke.com/community/view/394701,31.188557,121.547533,公寓,1.45元/平米/月,57000m²,1550户,2003年,600,1.4,40%(高),大华集团,上海浦华物业管理有限公司
241,万富轩,https://shanghai.anjuke.com/community/view/357989,31.169335,121.518924,公寓,5.50元/平米/月,19000m²,437户,2011年,173,0.84,23%(一般),上海恒大（集团）有限公司,锦之嘉酒店管理有限公司
242,荷风翠庭,https://shanghai.anjuke.com/community/view/357773,30.915276,121.813404,公寓,0.80元/平米/月,58000m²,1300户,2010年,600个,1.8,40%(高),上海申冠置业发展有限公司,上房物业
243,万科清林径,https://shanghai.anjuke.com/community/view/343504,31.031737,121.662871,公寓,2.60元/平米/月,150000m²,1300户,2012年,940,1.5,45%(高),万科集团,上海万科物业管理有限公司
244,长泰东郊御园,https://shanghai.anjuke.com/community/view/286752,31.03010200000001,121.596956,别墅,3.20元/平米/月,240000m²,300户,2013年,300,1.2,35%(一般),上海豪全房地产开发有限公司,长宜物业管理有限公司
245,中凌东港苑,https://shanghai.anjuke.com/community/view/263533,31.374076,121.550233,公寓,1.00元/平米/月,82000m²,875户,2008年,354,1.6,30%(一般),上海中凌房地产开发有限公司,潼港物业
246,亲和源,https://shanghai.anjuke.com/community/view/224262,31.14493400000001,121.623933,公寓,2.00元/平米/月,100000m²,838户,2008年,108,1.2,51%(高),亲和源股份有限公司,艾玛克物业管理有限公司
247,百欣苑,https://shanghai.anjuke.com/community/view/202486,31.17639,121.758401,公寓,0.80元/平米/月,53624m²,380户,2005年,20,1.5,26%(一般),东宏房产开发有限公司,上海浦东物业管理公司
248,东丰林居,https://shanghai.anjuke.com/community/view/200933,31.102826,121.586888,别墅,2.30元/平米/月,71331m²,257户,2008年,257,0.8,35%(一般),上海康晖置业有限公司,上海外经贸房地产开发经营有限公司
249,保利金爵公寓,https://shanghai.anjuke.com/community/view/189907,31.209415000000003,121.66046,公寓,2.50元/平米/月,400000m²,1276户,2009年,800,1.6,30%(一般),上海保利金鹏置业有限公司,上海保利物业公司
250,金东名苑(东区),https://shanghai.anjuke.com/community/view/176003,31.263291,121.593113,公寓,1.10元/平米/月,71000m²,1200户,2001年,370,1.4,25%(一般),上海建工集团,上海伟发物业有限公司
251,秀康新城达城家园,https://shanghai.anjuke.com/community/view/174113,31.12943,121.605532,公寓,1.00元/平米/月,59744m²,822户,2007年,108,1.3,40%(高),上海达周置业有限公司,上海达周置业有限公司
252,沈默花苑,https://shanghai.anjuke.com/community/view/173468,31.118101,121.582874,公寓,0.80元/平米/月,78000m²,248户,2007年,200,1.75,38%(一般),上海沈默房地产有限公司,上海欣周物业管理有限公司
253,连城苑,https://shanghai.anjuke.com/community/view/12830,31.265149,121.591695,公寓,1.35元/平米/月,60648m²,890户,2002年,100,1.5,40%(高),上海连城置业发展有限公司,上海陆家嘴物业管理有限公司
254,中邦城市,https://shanghai.anjuke.com/community/view/7734,31.141285,121.577845,公寓,1.50元/平米/月,暂无数据,暂无数据,2014年,100,2.3,35%(一般),中邦置业集团有限公司,上海中邦物业管理有限公司
255,宁怡苑,https://shanghai.anjuke.com/community/view/7731,31.144436,121.617942,公寓,0.80元/平米/月,80000m²,560户,2006年,192,1.2,36%(一般),上海康桥实业发展有限公司,上海双乐物业管理有限公司
256,香楠小区(西区),https://shanghai.anjuke.com/community/view/6050,31.222099,121.622767,公寓,0.25元/平米/月,暂无数据,暂无数据,1995年,120,1.3,30%(一般),上海诚开（集团）有限公司,上海东湖物业管理有限公司 
257,陆凌新村,https://shanghai.anjuke.com/community/view/6018,31.353876,121.568754,公寓,1.20元/平米/月,48900m²,680户,1994年,210,1.2,35%(一般),上海市浦东高桥物业发展有限公司,上海浦东新区高桥物业发展公司
258,芳华路229弄小区,https://shanghai.anjuke.com/community/view/5966,31.201868,121.561216,公寓,0.50元/平米/月,38900m²,490户,1998年,120,2,40%(高),上海花木开发有限公司,上海泰昕物业管理有限公司
259,洪高小区,https://shanghai.anjuke.com/community/view/5817,31.181285,121.505105,公寓,0.80元/平米/月,20000m²,576户,1996年,200,2,35%(一般),暂无数据,上海振南物业
260,川新小区,https://shanghai.anjuke.com/community/view/5783,31.176311,121.516032,公寓,1.10元/平米/月,3m²,1300户,1998年,60,暂无数据,20%(一般),恒大房地产开发公司,上海浦东新区潍坊物业公司
261,世华锦城,https://shanghai.anjuke.com/community/view/3350,31.166959,121.506605,公寓,0.60元/平米/月,暂无数据,暂无数据,2007年,2000,1.65,40%(高),上海界龙集团有限公司,上海界龙日月置业有限公司
262,通昌苑,https://shanghai.anjuke.com/community/view/2664,31.25853,121.571038,公寓,1.20元/平米/月,21276m²,186户,1995年,120,3.1,35%(一般),上海通联房地产有限公司,通明物业管理有限公司
263,聚龙家园,https://shanghai.anjuke.com/community/view/2600,31.202733,121.57545,公寓,1.20元/平米/月,76900m²,1200户,2002年,150,3,30%(一般),上海建工集团,聚龙物业
264,春晖苑,https://shanghai.anjuke.com/community/view/2330,31.349592,121.59413899999998,公寓,0.80元/平米/月,87000m²,1200户,2003年,450,1.2,36%(一般),上海金高房地产有限责任公司,兴高物业
265,今达花园,https://shanghai.anjuke.com/community/view/2310,31.263712,121.587204,公寓,1.05元/平米/月,78000m²,350户,2001年,100,1.3,48%(高),上海鹏莱房地产开发有限公司,上海鹏莱房地产开发有限公司
266,东方知音苑,https://shanghai.anjuke.com/community/view/1681,31.264635,121.581279,公寓,1.10元/平米/月,180000m²,1479户,2002年,536,暂无数据,40%(高),上海复地新河房地产开发有限公司,上海复瑞物业管理有限公司
267,碧海现代苑,https://shanghai.anjuke.com/community/view/984,31.258438,121.607106,公寓,1.50元/平米/月,16000m²,252户,2005年,300,2.2,35%(一般),上海群达置业有限公司,上海群达置业
268,金桥名都,https://shanghai.anjuke.com/community/view/911,31.260656,121.602754,公寓,3.20元/平米/月,暂无数据,暂无数据,2016年,293,1.8,30%(一般),上海金桥房地产发展有限公司,上海浦东金桥物业公司
269,证大家园(一期),https://shanghai.anjuke.com/community/view/291,31.287737,121.607109,公寓,1.55元/平米/月,600000m²,300户,2003年,610,1.6,40%(高),上海证大置业有限公司,上海科瑞物业管理发展有限公司
270,博爱家园,https://shanghai.anjuke.com/community/view/288,31.190768,121.518363,公寓,0.85元/平米/月,104000m²,800户,2002年,350,1.63,40%(高),上海南博房产有限公司,上海汇虹物业管理公司
271,海怡花园,https://shanghai.anjuke.com/community/view/278,31.238451,121.537461,公寓,3.00元/平米/月,80000m²,868户,1997年,600,2.5,50%(高),上海浦东金鑫房地产发展有限公司,上海上房物业有限公司
272,浦江茗园,https://shanghai.anjuke.com/community/view/266,31.246755,121.519652,公寓,1.00元/平米/月,75000m²,437户,2000年,325,2.1,40%(高),三新企业发展有限公司,陆家嘴物业
273,碧云花园,https://shanghai.anjuke.com/community/view/265,31.248061,121.592011,公寓,3.00元/平米/月,115505m²,356户,2009年,890,1.74,40%(高),上海金桥出口加工区房地产发展有限公司,上海金晨物业经营管理有限公司
274,上南翡翠,https://shanghai.anjuke.com/community/view/86,31.155814000000003,121.501911,公寓,1.56元/平米/月,75021m²,452户,2006年,380,暂无数据,45%(高),上海源众房地产有限公司,上海中凯物业有限公司
275,中星海上景庭,https://shanghai.anjuke.com/community/view/39,31.245443,121.554999,公寓,2.00元/平米/月,100000m²,1868户,2006年,670,1.89,40%(高),上海中星（集团）有限公司,上海申城物业管理有限公司
276,盛世年华,https://shanghai.anjuke.com/community/view/32,31.234437,121.545667,公寓,3.00元/平米/月,230000m²,1550户,2005年,600,暂无数据,45%(高),上海三味企业发展有限公司,上海浦东房地产物业公司
277,东方冠郡,https://shanghai.anjuke.com/community/view/1026172,31.034834000000004,121.659773,公寓,1.80元/平米/月,暂无数据,暂无数据,2013年,暂无数据,1.5,38%(一般),上海意得实业投资有限公司上海意得实业投资有限公司,上海常得物业管理有限公司
278,黄山始信苑,https://shanghai.anjuke.com/community/view/1026072,31.263492,121.577782,公寓,0.85元/平米/月,暂无数据,暂无数据,1999年,暂无数据,1.8,暂无数据,上海城投置业发展有限公司,上海佳信物业管理有限公司
279,岭南苑,https://shanghai.anjuke.com/community/view/1025957,31.148146,121.498114,公寓,1.20元/平米/月,暂无数据,暂无数据,2002年,暂无数据,1.3,35%(一般),上海岭南房地产开发有限公司,上海公益物业管理有限公司
280,颐景园,https://shanghai.anjuke.com/community/view/1025769,31.064004,121.767032,公寓,2.50元/平米/月,暂无数据,暂无数据,2016年,暂无数据,2.5,35%(一般),上海三花颐景置业有限公司,上海颐景园物业管理有限公司
281,浦凌佳苑,https://shanghai.anjuke.com/community/view/1016356,31.364791,121.538416,公寓,1.80元/平米/月,暂无数据,暂无数据,2016年,暂无数据,1.65,35%(一般),上海浦发升荣房地产开发有限公司,潼港物业
282,凤凰大厦服务公寓,https://shanghai.anjuke.com/community/view/995169,31.249137,121.592656,公寓,暂无数据,暂无数据,暂无数据,1998年,暂无数据,暂无数据,暂无数据,上海北圣投资管理有限公司,上海小草物业管理有限公司
283,蓝高小区,https://shanghai.anjuke.com/community/view/990440,31.216809,121.53473,公寓,0.85元/平米/月,暂无数据,暂无数据,1992年,暂无数据,1.75,暂无数据,蓝高发展有限公司,上海申城物业公司
284,东陆新村六街坊,https://shanghai.anjuke.com/community/view/990242,31.284716,121.603249,公寓,0.70元/平米/月,暂无数据,暂无数据,1997年,暂无数据,1.86,34%(一般),上海建工集团,上海安居物业有限公司
285,梅园四街坊,https://shanghai.anjuke.com/community/view/990142,31.23900200000001,121.531759,公寓,0.80元/平米/月,暂无数据,暂无数据,1994年,暂无数据,2,35%(一般),上海建工集团,上海洋泾物业有限公司
286,梅园二街坊,https://shanghai.anjuke.com/community/view/990139,31.24275,121.529749,公寓,0.50元/平米/月,暂无数据,暂无数据,1984年,暂无数据,2,暂无数据,日月明房产,上海欣达房产服务公司
287,晶耀名邸,https://shanghai.anjuke.com/community/view/944555,31.159641,121.482359,公寓,9.90元/平米/月,暂无数据,暂无数据,暂无数据,暂无数据,暂无数据,35%(一般),上海陆家嘴集团,上海市陆家嘴物业管理有限公司
288,嘉宝前滩后院,https://shanghai.anjuke.com/community/view/915051,31.160784000000003,121.519255,公寓,8.00元/平米/月,暂无数据,暂无数据,暂无数据,暂无数据,1.2,35%(一般),上海嘉宝实业(集团)股份有限公司,上海嘉宝物业服务有限公司
289,万科翡翠滨江(二期),https://shanghai.anjuke.com/community/view/877182,31.254064,121.548222,公寓,9.60元/平米/月,暂无数据,暂无数据,2017年,暂无数据,2.76,30%(一般),上海中房滨江房产有限公司,上海万科物业管理有限公司
290,汇福家园兴盛里(南区),https://shanghai.anjuke.com/community/view/877050,31.102131,121.613409,公寓,1.16元/平米/月,暂无数据,暂无数据,暂无数据,暂无数据,暂无数据,暂无数据,无,上海金玉兰物业管理有限公司
291,宏港苑,https://shanghai.anjuke.com/community/view/875449,31.041039,121.84821399999998,公寓,1.20元/平米/月,暂无数据,暂无数据,暂无数据,暂无数据,暂无数据,暂无数据,上海南汇市政建设有限公司,上海南汇老港镇居委会
292,众城商厦,https://shanghai.anjuke.com/community/view/862220,31.213605,121.523108,公寓,暂无数据,暂无数据,暂无数据,2007年,暂无数据,1.5,39%(一般),上海锦华置业发展有限公司,无
293,潍坊六村,https://shanghai.anjuke.com/community/view/862199,31.228186,121.529777,公寓,2.00元/平米/月,暂无数据,暂无数据,1983年,暂无数据,1.7,15%(低),上海建工集团,上海浦东新区潍坊物业有限公司
294,颐谷北苑,https://shanghai.anjuke.com/community/view/821059,31.106442,121.609091,公寓,暂无数据,暂无数据,暂无数据,2013年,暂无数据,1.8,35%(一般),暂无数据,无
295,证大家园(五期),https://shanghai.anjuke.com/community/view/820525,31.288414000000003,121.599302,公寓,1.55元/平米/月,暂无数据,暂无数据,2006年,暂无数据,1.51,36%(一般),上海证大置业有限公司,上海科瑞物业管理发展有限公司
296,鹤沙航城东茗苑(东区),https://shanghai.anjuke.com/community/view/817600,31.080466,121.61113,公寓,1.08元/平米/月,暂无数据,暂无数据,2012年,暂无数据,暂无数据,35%(一般),宾迂开发商有限公司,上海农工商旺都物业管理
297,地杰国际城D街坊,https://shanghai.anjuke.com/community/view/817479,31.166717,121.581223,公寓,1.50元/平米/月,暂无数据,暂无数据,2009年,暂无数据,2,40%(高),上海国杰地产开发有限公司,上海陆家嘴双乐物业公司
298,凯佳公寓(一期),https://shanghai.anjuke.com/community/view/794426,31.181643,121.704209,公寓,1.89元/平米/月,暂无数据,暂无数据,暂无数据,暂无数据,暂无数据,暂无数据,上海浦东山佳实业有限公司,上海君仕物业管理有限公司
299,幸福里,https://shanghai.anjuke.com/community/view/794276,31.244725,121.694652,公寓,0.80元/平米/月,暂无数据,暂无数据,2013年,暂无数据,暂无数据,暂无数据,暂无数据,无
300,沪航公寓,https://shanghai.anjuke.com/community/view/751551,31.034119,121.602063,公寓,暂无数据,暂无数据,暂无数据,2004年,暂无数据,1.7,35%(一般),上海沪航贸易发展有限公司,无
301,中骏柏景湾,https://shanghai.anjuke.com/community/view/730621,31.123964,121.551953,公寓,1.50元/平米/月,暂无数据,暂无数据,2017年,暂无数据,1.8,35%(一般),中骏置业控股有限公司,世邦泰和物业管理有限公司、福建世邦泰和物业管理有限公司
302,传说99,https://shanghai.anjuke.com/community/view/725211,31.21776,121.565399,别墅,2.00元/平米/月,暂无数据,暂无数据,2003年,暂无数据,1.73,50%(高),上海东上海置业有限公司,上海浦东物业管理公司
303,新高苑雅园,https://shanghai.anjuke.com/community/view/639030,31.298415,121.629863,公寓,0.80元/平米/月,暂无数据,暂无数据,2013年,暂无数据,暂无数据,暂无数据,暂无数据,信汇物业
304,阳光欧洲城蔷薇绅邻,https://shanghai.anjuke.com/community/view/627837,31.277726,121.618174,别墅,2.20元/平米/月,100000m²,334户,2004年,334,1.22,40%(高),阳光欧洲城投资发展有限公司,上海陆家嘴物业管理有限公司
305,汇福家园兴盛里(北区),https://shanghai.anjuke.com/community/view/619183,31.103817,121.612259,公寓,1.16元/平米/月,暂无数据,暂无数据,2013年,暂无数据,1.8,40%(高),暂无数据,上海金玉兰物业管理有限公司
306,仁和都市花园,https://shanghai.anjuke.com/community/view/611758,31.159916,121.583248,公寓,1.20元/平米/月,174300m²,1104户,2014年,880,1.83,35%(一般),上海佳地置业有限公司,上海联源物业发展有限公司
307,绿城上海御园,https://shanghai.anjuke.com/community/view/607019,31.298712,121.596142,公寓,2.00元/平米/月,172701m²,748户,2015年,940,1.6,35%(一般),上海保利泓融房地产有限公司,上海绿城物业
308,浦三路732弄小区,https://shanghai.anjuke.com/community/view/595088,31.190989,121.524301,公寓,暂无数据,暂无数据,暂无数据,2003年,暂无数据,1.5,23%(一般),上海建工集团股份有限公司,北方物业
309,桃园新城汇枫公寓,https://shanghai.anjuke.com/community/view/581152,31.096603,121.589678,公寓,0.70元/平米/月,暂无数据,暂无数据,2013年,暂无数据,1.8,40%(高),周康置业开发有限公司,上海华谊集团置业有限公司
310,宏港苑,https://shanghai.anjuke.com/community/view/574876,31.039132,121.849872,公寓,0.60元/平米/月,暂无数据,暂无数据,2007年,暂无数据,1.2,30%(一般),暂无数据,暂无数据
311,心圆东苑,https://shanghai.anjuke.com/community/view/558575,31.179256,121.698565,公寓,1.25元/平米/月,暂无数据,暂无数据,2012年,暂无数据,1.05,30%(一般),上海心圆房地产,上海浦东新区新川物业管理有限公司
312,鹤兴苑,https://shanghai.anjuke.com/community/view/528492,31.20130300000001,121.708528,公寓,1.90元/平米/月,暂无数据,暂无数据,2002年,暂无数据,1.2,45%(高),暂无数据,上海绿地物业管理有限公司
313,亭园新村,https://shanghai.anjuke.com/community/view/487712,30.957411,121.905911,公寓,暂无数据,暂无数据,暂无数据,暂无数据,暂无数据,暂无数据,暂无数据,暂无数据,暂无数据
314,金地艺华年,https://shanghai.anjuke.com/community/view/396663,31.047385,121.590067,公寓,2.90元/平米/月,180000m²,1248户,2014年,1376,1.2,35%(一般),上海航金房地产开发有限公司,上海金地物业服务有限公司
315,新城碧翠,https://shanghai.anjuke.com/community/view/370240,31.312325,121.589891,公寓,2.80元/平米/月,126925m²,244户,2013年,1000,1.6,35%(一般),上海东郡房地产有限公司,金钥匙物业
316,古北御庭,https://shanghai.anjuke.com/community/view/370201,31.205437,121.555426,公寓,3.50元/平米/月,63726m²,490户,2013年,490个,2.74,40%(高),上海浦东古北置业有限公司,古北物业
317,永业小区(北区),https://shanghai.anjuke.com/community/view/312280,31.271942,121.619868,公寓,0.60元/平米/月,暂无数据,暂无数据,2002年,暂无数据,1.2,30%(一般),上海建工集团股份有限公司,上海市伟发物业管理有限公司
318,南新东园,https://shanghai.anjuke.com/community/view/307131,31.336111,121.593678,公寓,1.50元/平米/月,150000m²,1001户,2010年,776,2.5,40%(高),永圣房地产开发有限公司,永久物业
319,东港花苑三村,https://shanghai.anjuke.com/community/view/231936,31.115236,121.771265,公寓,0.30元/平米/月,40000m²,6500户,1997年,220,1.2,35%(一般),上海祝桥新镇投资发展有限公司,上海祝桥新镇投资发展有限公司
320,三林新村,https://shanghai.anjuke.com/community/view/207708,31.142843,121.5112,公寓,0.50元/平米/月,暂无数据,暂无数据,1990年,2500,暂无数据,30%(一般),乾坤置业有限公司,上海浦东新区潍坊物业公司
321,沪一小区,https://shanghai.anjuke.com/community/view/130167,31.27584,121.59053,公寓,0.60元/平米/月,40000m²,300户,1980年,200,1.1,25%(一般),沪东造船有限公司,上海洋泾物业
322,凯德新视界,https://shanghai.anjuke.com/community/view/126397,30.967299,121.816218,公寓,2.85元/平米/月,暂无数据,暂无数据,2015年,500,2.33,35%(一般),上海凯惠置业有限公司,上海怡东物业管理有限公司
323,聚航苑,https://shanghai.anjuke.com/community/view/117431,31.030973,121.586185,公寓,1.30元/平米/月,115200m²,1560户,2008年,265,1.5,36%(一般),上海陈氏集团有限公司,聚航苑|航梅路526弄78支弄131-179号
324,翔川家园(南区),https://shanghai.anjuke.com/community/view/114304,31.18906500000001,121.701536,公寓,0.80元/平米/月,暂无数据,暂无数据,2010年,100,1.5,30%(一般),上海贝越实业有限公司,上海佳龙物业公司
325,华高一村,https://shanghai.anjuke.com/community/view/15120,31.286534000000003,121.620695,公寓,0.30元/平米/月,67284m²,1596户,1994年,230,1.51,35%(一般),上海建工集团,上海华高物业公司
326,兰城小区,https://shanghai.anjuke.com/community/view/14144,31.270975,121.586507,公寓,0.80元/平米/月,暂无数据,暂无数据,2004年,120,1.8,28%(一般),上海浦城开发商,上海洋泾物业有限公司
327,高东馨苑,https://shanghai.anjuke.com/community/view/12702,31.33369,121.624979,公寓,0.50元/平米/月,130000m²,900户,2007年,350,2,38%(一般),上海新园房地产开发有限公司,新园物业有限公司
328,明纶园,https://shanghai.anjuke.com/community/view/7682,31.151985,121.570615,公寓,1.60元/平米/月,26000m²,480户,2003年,123,1.5,40%(高),上海明纶置业有限公司,上海明纶置业有限公司
329,汇通新村,https://shanghai.anjuke.com/community/view/7679,31.053165000000003,121.757189,公寓,0.70元/平米/月,暂无数据,1200户,1999年,300,1.2,30%(一般),上海宏基房产开发有限公司,上海市南汇恵房物业有限公司
330,培花久远公寓,https://shanghai.anjuke.com/community/view/5758,31.201887,121.566705,公寓,0.80元/平米/月,暂无数据,暂无数据,2000年,200,1.8,39%(一般),上海久禄企业发展有限公司,久远物业管理有限公司
331,巨西小区,https://shanghai.anjuke.com/community/view/5532,31.245751,121.552035,公寓,2.50元/平米/月,61000m²,480户,1994年,138,暂无数据,45%(高),上海建工集团,泰昕物业
332,金桥新城,https://shanghai.anjuke.com/community/view/2656,31.267901,121.616271,公寓,0.67元/平米/月,暂无数据,暂无数据,2002年,137,1.96,35%(一般),上海金鹏房地产开发有限公司,上海芸绮物业管理有限公司
333,情谊苑,https://shanghai.anjuke.com/community/view/2122,31.204025,121.698176,公寓,0.45元/平米/月,暂无数据,暂无数据,2002年,45,1.5,35%(一般),暂无数据,倍至业物业管理有限公司
334,广兰名苑,https://shanghai.anjuke.com/community/view/1915,31.20924500000001,121.626824,公寓,1.80元/平米/月,57300m²,282户,2002年,222,1.7,45%(高),上海浦东金三角房地产实业有限公司,上海市仁联物业有限公司
335,水清木华公寓,https://shanghai.anjuke.com/community/view/1713,31.23097000000001,121.56732,公寓,2.00元/平米/月,140000m²,300户,2004年,600,暂无数据,45%(高),上海证大三角洲置业有限公司,上海证大物业管理有限公司
336,景宏嘉园,https://shanghai.anjuke.com/community/view/1661,31.243475,121.563453,公寓,1.35元/平米/月,90000m²,680户,2004年,500,1.97,40%(高),上海宏泰房地产有限公司,宏胜物业管理有限公司
337,罗山怡景苑,https://shanghai.anjuke.com/community/view/1560,31.24207100000001,121.570202,公寓,1.80元/平米/月,25000m²,228户,2005年,47,1.6,40%(高),上海京建房产开发有限公司,陆洋物业
338,梅园新村,https://shanghai.anjuke.com/community/view/1520,31.242089,121.530358,公寓,0.45元/平米/月,59000m²,870户,1994年,100元/月,1.6,35%(一般),上海建工集团,上海建工物业管理有限公司
339,安居苑八街坊,https://shanghai.anjuke.com/community/view/757,31.283915000000004,121.606626,公寓,0.30元/平米/月,36500m²,408户,2000年,198,1.8,35%(一般),上海城投置业发展有限公司,上海安居房物业管理有限公司
340,中星怡景花园,https://shanghai.anjuke.com/community/view/727,31.240438,121.56042,公寓,1.80元/平米/月,84520m²,540户,2007年,414,1.6,60%(高),上海中星（集团）有限公司,上海新城物业有限公司
341,环龙新纪园,https://shanghai.anjuke.com/community/view/356,31.211514,121.560907,公寓,1.20元/平米/月,40000m²,655户,2001年,150,2,40%(高),上海泰龙房地产发展有限公司,上海培花物业管理有限公司
342,紫竹馨苑,https://shanghai.anjuke.com/community/view/279,31.185488,121.520598,公寓,0.80元/平米/月,35710m²,150户,2002年,450,1.54,35%(一般),上海紫竹置业发展有限公司,上海中凯物业有限公司
343,云间绿大地,https://shanghai.anjuke.com/community/view/208,31.234435,121.586551,别墅,6.50元/平米/月,410000m²,474户,2002年,500,0.21,63%(高),上海都市房地产发展有限公司,上海齐佳物业管理有限公司
344,陆家嘴中央公寓,https://shanghai.anjuke.com/community/view/116,31.22022,121.547254,公寓,暂无数据,32091m²,45户,2006年,76,2.1,50%(高),上海陆家嘴联合房地产有限公司,陆家嘴联合物业
345,未来域,https://shanghai.anjuke.com/community/view/90,31.153975,121.542692,公寓,2.60元/平米/月,140800m²,1016户,2006年,650,1.4,45%(高),深圳金地房地产发展有限公司,金地物业
346,香榭丽花园,https://shanghai.anjuke.com/community/view/77,31.23303,121.542226,公寓,2.50元/平米/月,暂无数据,暂无数据,2001年,暂无数据,暂无数据,35%(一般),上海龙仓置业有限公司,上海浦房物业
347,美林别墅,https://shanghai.anjuke.com/community/view/45,31.152572,121.536692,别墅,暂无数据,35732m²,109户,2007年,220,0.3,50%(高),上海中房置业股份有限公司,业主自管
348,东园四村,https://shanghai.anjuke.com/community/view/20,31.236236,121.518907,公寓,2.00元/平米/月,78000m²,1200户,1996年,480,暂无数据,30%(一般),上海陆家嘴物业管理有限公司,上海华贸物业
349,保利御樽苑(公寓),https://shanghai.anjuke.com/community/view/1026213,31.211975,121.659898,公寓,2.50元/平米/月,暂无数据,暂无数据,2011年,暂无数据,1.6,35%(一般),上海保鑫置业有限公司,上海保利物业公司
350,黄山新城上海未来,https://shanghai.anjuke.com/community/view/1026073,31.2597,121.577494,公寓,1.32元/平米/月,暂无数据,暂无数据,2003年,暂无数据,1.35,48%(高),上海置城房地产有限公司,上海百联物业管理有限公司
351,民乐苑,https://shanghai.anjuke.com/community/view/1025947,31.163719,121.575368,公寓,1.90元/平米/月,暂无数据,暂无数据,2005年,暂无数据,2,暂无数据,上海御桥发展有限公司,上海物业公司
352,南杨花园,https://shanghai.anjuke.com/community/view/1025917,31.19818,121.560333,公寓,1.20元/平米/月,暂无数据,暂无数据,1995年,暂无数据,1.6,暂无数据,上海建工集团,上海南杨物业有限公司
353,仁恒森兰雅苑(三期),https://shanghai.anjuke.com/community/view/1025916,31.305686,121.601404,公寓,5.00元/平米/月,暂无数据,暂无数据,2015年,暂无数据,1.6,35%(一般),上海仁恒置业发展有限公司,上海仁恒物业管理有限公司
354,仁恒森兰雅苑(二期),https://shanghai.anjuke.com/community/view/1025915,31.300848,121.59768,公寓,5.00元/平米/月,暂无数据,暂无数据,2015年,暂无数据,1.6,35%(一般),上海仁恒森兰置业有限公司、仁恒置业,上海仁恒物业管理有限公司
355,杉林新月家园,https://shanghai.anjuke.com/community/view/1025890,31.145227,121.535846,公寓,1.00元/平米/月,暂无数据,暂无数据,2006年,暂无数据,1.5,36%(一般),上海凯晨房地产开发有限公司,上海杨浦区市政建设物业有限公司、上海杨浦物业管理有限公司
356,阳光苑,https://shanghai.anjuke.com/community/view/1025761,31.278318,121.657773,公寓,0.55元/平米/月,暂无数据,暂无数据,2003年,暂无数据,1.8,35%(一般),上海顾路房地产开发经营公司,上海芸琦物业有限管理公司
357,外高桥森兰公寓,https://shanghai.anjuke.com/community/view/1006805,31.318977,121.594315,公寓,1.10元/平米/月,暂无数据,暂无数据,暂无数据,暂无数据,暂无数据,暂无数据,暂无数据,陆家嘴物业
358,御沁园(东区别墅),https://shanghai.anjuke.com/community/view/1005003,31.108071,121.581995,别墅,2.00元/平米/月,暂无数据,暂无数据,2013年,暂无数据,1.3,35%(一般),上海荣启置业有限公司,家利物业管理(上海)有限公司
359,东港花苑三村,https://shanghai.anjuke.com/community/view/1001738,31.113949,121.772213,公寓,1.00元/平米/月,暂无数据,暂无数据,1998年,暂无数据,暂无数据,暂无数据,上海祝桥新镇投资发展有限公司,上海南汇祝桥物业管理有限公司
360,金桥新村四街坊长岛小区,https://shanghai.anjuke.com/community/view/990426,31.268066,121.600523,公寓,0.55元/平米/月,暂无数据,暂无数据,1998年,暂无数据,1.3,35%(一般),上海浦龙集团,上海畅苑物业管理有限公司
361,金桂小区,https://shanghai.anjuke.com/community/view/990177,31.213907,121.555131,公寓,0.55元/平米/月,暂无数据,暂无数据,1996年,暂无数据,1.8,暂无数据,上海建工集团,上海浦东新区花木物业公司
362,临沂三村,https://shanghai.anjuke.com/community/view/990167,31.19989600000001,121.514829,公寓,0.45元/平米/月,暂无数据,暂无数据,1987年,暂无数据,暂无数据,35%(一般),振南开发商,振南物业
363,临沂六村,https://shanghai.anjuke.com/community/view/990165,31.197192,121.520308,公寓,0.95元/平米/月,暂无数据,暂无数据,1989年,暂无数据,暂无数据,暂无数据,上海建工集团,振南物业
364,妙境一村,https://shanghai.anjuke.com/community/view/990147,31.192763,121.701748,公寓,0.36元/平米/月,暂无数据,暂无数据,1995年,暂无数据,2,暂无数据,浦东房地产开发公司,浦东物业管理有限公司
365,双桥小区,https://shanghai.anjuke.com/community/view/990101,31.290422,121.600374,公寓,4.80元/平米/月,暂无数据,暂无数据,2006年,暂无数据,1.8,25%(一般),上海建工集团,上海建工物业管理有限公司
366,阜兴世纪公馆,https://shanghai.anjuke.com/community/view/938385,31.230707,121.536121,公寓,5.98元/平米/月,暂无数据,暂无数据,2017年,暂无数据,2,35%(一般),暂无数据,上海微满酒店管理有限公司
367,尚滨江,https://shanghai.anjuke.com/community/view/917086,31.218083,121.520195,公寓,暂无数据,暂无数据,暂无数据,2013年,暂无数据,3.6,35%(一般),上海景瑞地产(集团)股份有限公司,上海世邦魏理仕物业顾问有限公司
368,千汇苑,https://shanghai.anjuke.com/community/view/877111,31.118923,121.770265,公寓,暂无数据,暂无数据,暂无数据,暂无数据,暂无数据,暂无数据,暂无数据,暂无数据,暂无数据
369,金桥酒店公寓,https://shanghai.anjuke.com/community/view/877058,31.250205,121.595128,公寓,3.00元/平米/月,暂无数据,暂无数据,暂无数据,暂无数据,暂无数据,暂无数据,上海东渡房地产开发有限责任公司,金马酒店公寓管理（上海）有限公司
370,久阳滨江公寓,https://shanghai.anjuke.com/community/view/877031,31.228452,121.5238,公寓,5.00元/平米/月,暂无数据,暂无数据,暂无数据,暂无数据,暂无数据,暂无数据,暂无数据,中海物业
371,宣桥枫庭,https://shanghai.anjuke.com/community/view/873642,31.054452,121.722582,公寓,0.80元/平米/月,暂无数据,暂无数据,暂无数据,暂无数据,暂无数据,暂无数据,上海三凌科技创业有限公司,无
372,象屿鼎城(别墅),https://shanghai.anjuke.com/community/view/873630,31.192057,121.691721,别墅,3.90元/平米/月,暂无数据,暂无数据,2013年,暂无数据,1.5,暂无数据,上海象屿鼎城有限公司,上海同进物业管理有限公司
373,潍坊七村,https://shanghai.anjuke.com/community/view/866810,31.229342,121.528764,公寓,2.00元/平米/月,暂无数据,暂无数据,暂无数据,暂无数据,暂无数据,暂无数据,暂无数据,上海浦东新区潍坊物业有限公司
374,汇福家园安康里(西区),https://shanghai.anjuke.com/community/view/866559,31.101955,121.607763,公寓,0.70元/平米/月,暂无数据,暂无数据,暂无数据,暂无数据,暂无数据,暂无数据,暂无数据,暂无数据
375,芳草路352弄小区,https://shanghai.anjuke.com/community/view/866491,31.199991,121.564391,公寓,1.35元/平米/月,暂无数据,暂无数据,暂无数据,暂无数据,暂无数据,暂无数据,上海裕华有限公司,上海航帆物业管理有限公司
376,玉兰香苑(四期),https://shanghai.anjuke.com/community/view/821336,31.204189000000003,121.644226,公寓,0.80元/平米/月,暂无数据,暂无数据,2008年,暂无数据,暂无数据,30%(一般),上海张江房地产有限公司,上海新秀物业管理有限公司
377,证大家园(四期),https://shanghai.anjuke.com/community/view/820524,31.287245,121.602898,公寓,1.55元/平米/月,暂无数据,暂无数据,2003年,暂无数据,1.3,40%(高),上海证大置业有限公司,上海科瑞物业管理发展有限公司
378,新芦苑C区,https://shanghai.anjuke.com/community/view/820016,30.877647,121.859144,公寓,0.80元/平米/月,暂无数据,暂无数据,2015年,暂无数据,2,30%(一般),暂无数据,凯昌物业管理有限公司
379,新芦苑B区,https://shanghai.anjuke.com/community/view/820014,30.880435,121.861529,公寓,0.80元/平米/月,暂无数据,暂无数据,2008年,暂无数据,2,30%(一般),暂无数据,无
380,三林世博家园(AB区),https://shanghai.anjuke.com/community/view/819645,31.166259000000004,121.543939,公寓,1.25元/平米/月,暂无数据,暂无数据,2006年,1500,1.7,35%(一般),上海市浦东新区房地产（集团）有限公司,和记物业服务(上海)有限公司
381,绿地临港家园海事小区,https://shanghai.anjuke.com/community/view/819608,30.885907,121.925044,公寓,0.70元/平米/月,暂无数据,暂无数据,2008年,暂无数据,1.6,35%(一般),上海绿地临港建设发展有限公司,上海家佳物业有限公司
382,绿地东上海海富城市花园(一期),https://shanghai.anjuke.com/community/view/819593,31.13208,121.574796,公寓,0.50元/平米/月,暂无数据,暂无数据,2006年,暂无数据,1.65,47%(高),上海富润房地产发展有限公司,上海科瑞物业管理发展有限公司
383,地杰国际城F欧香四季,https://shanghai.anjuke.com/community/view/819235,31.162708,121.579874,公寓,1.65元/平米/月,暂无数据,暂无数据,2006年,暂无数据,2,47%(高),上海地杰置业有限公司,上海上实物业管理有限公司
384,三林世博家园(C区),https://shanghai.anjuke.com/community/view/818952,31.167306,121.541206,公寓,1.20元/平米/月,暂无数据,暂无数据,2006年,暂无数据,1.7,30%(一般),上海市浦东新区房地产（集团）有限公司,上海浦东房地产集团物业管理有限公司
385,金翼小区,https://shanghai.anjuke.com/community/view/818194,31.370563,121.550836,公寓,0.50元/平米/月,暂无数据,暂无数据,2008年,暂无数据,暂无数据,36%(一般),暂无数据,潼港物业
386,东方名筑,https://shanghai.anjuke.com/community/view/817540,31.205221,121.524578,公寓,1.79元/平米/月,暂无数据,暂无数据,2015年,暂无数据,1.79,43%(高),东方城乡房地产开发经营有限公司,上海军盛物业管理有限公司
387,碧玉澜庭,https://shanghai.anjuke.com/community/view/792508,31.275863,121.581895,公寓,1.20元/平米/月,暂无数据,暂无数据,2015年,暂无数据,2.94,37%(一般),上海之忠房地产开发有限公司,上海顺风物业管理有限责任公司
388,祥美苑,https://shanghai.anjuke.com/community/view/727131,31.367335,121.54166399999998,公寓,1.50元/平米/月,暂无数据,暂无数据,2015年,暂无数据,暂无数据,35%(一般),暂无数据,潼港物业
389,齐友佳苑,https://shanghai.anjuke.com/community/view/657590,31.211592,121.677971,公寓,2.00元/平米/月,暂无数据,暂无数据,2014年,暂无数据,暂无数据,40%(高),暂无数据,上海大华物业管理有限公司
390,陆家嘴人才公寓,https://shanghai.anjuke.com/community/view/619777,31.207242,121.541204,公寓,1.10元/平米/月,暂无数据,暂无数据,2014年,暂无数据,暂无数据,暂无数据,暂无数据,暂无数据
391,凯德莲公馆,https://shanghai.anjuke.com/community/view/618688,31.195173,121.526867,公寓,0.80元/平米/月,66587m²,398户,2015年,263,1.8,35%(一般),新越置业（上海）有限公司,上海怡东物业管理有限公司
392,丽泽梅傲苑,https://shanghai.anjuke.com/community/view/616327,30.983167,121.880043,公寓,1.50元/平米/月,暂无数据,暂无数据,2011年,暂无数据,1.8,35%(一般),上海临港书院经济发展有限公司,上海中企物业管理有限公司
393,星海家园,https://shanghai.anjuke.com/community/view/608973,31.287356,121.686335,公寓,1.11元/平米/月,46800m²,1152户,2012年,600,暂无数据,40%(高),上海中星（集团）有限公司,浦东东龙物业有限公司
394,海霞佳苑,https://shanghai.anjuke.com/community/view/608100,31.176082,121.752185,公寓,0.80元/平米/月,暂无数据,暂无数据,2000年,300,1.2,30%(一般),上海玉宇房地产开发有限公司,祝桥镇物业有限公司
395,森兰名佳,https://shanghai.anjuke.com/community/view/595156,31.325492,121.599033,公寓,3.00元/平米/月,64000m²,284户,2014年,294,1.59,35%(一般),上海外高桥保税区开发股份有限公司,上海外高桥物业管理有限公司
396,汇智湖畔家园,https://shanghai.anjuke.com/community/view/595129,31.20513,121.611879,公寓,2.80元/平米/月,71000m²,600户,2014年,420,暂无数据,36%(一般),上海浦东软件园股份有限公司,上海浦园物业管理有限公司
397,新紫茂国际,https://shanghai.anjuke.com/community/view/583255,31.285304,121.615768,公寓,5.80元/平米/月,48952m²,380户,2012年,328,3.59,20%(一般),上海华宏工贸有限公司,中邦物业
398,森宏旗臻,https://shanghai.anjuke.com/community/view/581810,31.154795,121.499,公寓,6.00元/平米/月,25524m²,暂无数据,2014年,352,1.94,30%(一般),上海浦阳置业有限公司,上海迈元物业管理有限公司
399,绿地崴廉公寓,https://shanghai.anjuke.com/community/view/575186,31.295971999999995,121.619139,公寓,2.00元/平米/月,400000m²,2300户,2013年,1960,1.7,49%(高),上海绿地威廉置业有限公司,上海长城物业管理有限公司
400,中金海棠湾,https://shanghai.anjuke.com/community/view/571381,31.10528900000001,121.598194,公寓,0.80元/平米/月,50m²,1863户,2016年,每户2个,1.2,35%(一般),上海康桥高科创业发展有限公司,上海联源物业发展有限公司
401,罗山花苑,https://shanghai.anjuke.com/community/view/565228,31.239813,121.582735,公寓,0.60元/平米/月,1233m²,708户,1998年,191,1.22,42%(高),上海金洋置业有限公司,上海芸绮物业管理有限公司
402,浦东新世纪花苑(一期),https://shanghai.anjuke.com/community/view/565055,31.18116400000001,121.49086,公寓,2.70元/平米/月,暂无数据,暂无数据,1996年,150,暂无数据,43%(高),上海新世纪创业集团有限公司,上海新世纪物业管理有限公司
403,芳芯路251弄小区,https://shanghai.anjuke.com/community/view/510127,31.198687,121.562909,公寓,1.20元/平米/月,暂无数据,暂无数据,2011年,暂无数据,暂无数据,35%(一般),上海花木开发有限公司,上海佳管物业管理有限公司
404,绿洲康城金帝豪苑,https://shanghai.anjuke.com/community/view/480036,31.155037,121.579858,别墅,2.20元/平米/月,暂无数据,暂无数据,2016年,暂无数据,暂无数据,35%(一般),上海振龙房地产开发有限公司/香港金旺置地有限公司,暂无数据
405,丽泽荷亭苑,https://shanghai.anjuke.com/community/view/440676,30.981182,121.881661,公寓,1.50元/平米/月,暂无数据,暂无数据,2008年,170,暂无数据,33%(一般),临港经济发展有限公司,上海浦江物业有限公司
406,新高苑兰园,https://shanghai.anjuke.com/community/view/426150,31.29651,121.630051,公寓,1.50元/平米/月,暂无数据,暂无数据,2012年,220,暂无数据,35%(一般),上海外高桥新市镇开发管理有限公司,信汇物业
407,尼德兰花园,https://shanghai.anjuke.com/community/view/407998,31.34113,121.58918,公寓,2.90元/平米/月,27227m²,314户,2013年,尼德兰花园地下车位为180，地面车位为30,1.55,35%(一般),上海新高桥开发有限公司,欣城物业
408,大华锦绣华城十街区,https://shanghai.anjuke.com/community/view/394698,31.190699,121.542203,公寓,0.50元/平米/月,52000m²,480户,2006年,230,1.5,38%(一般),大华集团,上海浦华物业管理有限公司
409,张江汤臣豪园四期,https://shanghai.anjuke.com/community/view/394667,31.204045,121.600825,公寓,1.28元/平米/月,187660m²,1687户,2003年,1146,1.5,35%(一般),上海张江微电子港有限公司,东湖物业
410,碧云公馆,https://shanghai.anjuke.com/community/view/370194,31.259005,121.608312,公寓,2.32元/平米/月,72000m²,450户,1997年,304,2.25,35%(一般),农工商房地产（集团）股份有限公司,戴德梁行物业管理有限公司
411,国信世纪海景,https://shanghai.anjuke.com/community/view/349071,31.217846999999995,121.520287,公寓,7.50元/平米/月,98250m²,208户,2011年,416,3.6,35%(一般),上海中江房地产发展有限公司,世邦物业
412,博学家园,https://shanghai.anjuke.com/community/view/299600,31.16276400000001,121.525492,公寓,0.80元/平米/月,暂无数据,暂无数据,2009年,500,2.5,35%(一般),暂无数据,无
413,上海蓝堡,https://shanghai.anjuke.com/community/view/243959,31.127443,121.702196,别墅,3.80元/平米/月,230000m²,187户,2006年,350,0.2,70%(高),中恒集团,狮城怡安(上海)物业管理有限公司
414,中冶尚城,https://shanghai.anjuke.com/community/view/231110,31.320166,121.591628,公寓,1.98元/平米/月,暂无数据,暂无数据,2009年,789,1.6,47%(高),上海中冶新域置业有限公司,上海华高物业有限公司
415,绿地东上海海富城市花园(三期),https://shanghai.anjuke.com/community/view/208633,31.132946,121.576868,公寓,1.40元/平米/月,8545m²,5000户,2016年,500,暂无数据,51%(高),上海富润房地产发展有限公司,上海科瑞物业管理发展有限公司
416,文怡苑(一期),https://shanghai.anjuke.com/community/view/208631,31.143968,121.610758,公寓,0.60元/平米/月,86530m²,1530户,2007年,124,1.5,40%(高),周康置业开发有限公司,洲建物业
417,中星恬园,https://shanghai.anjuke.com/community/view/189844,31.23562,121.555674,公寓,1.90元/平米/月,暂无数据,暂无数据,2009年,280,1.61,35%(一般),海中星（集团）有限公司,中星新城物业
418,耀高大楼,https://shanghai.anjuke.com/community/view/181422,31.177267,121.487526,公寓,1.25元/平米/月,暂无数据,暂无数据,1995年,100,1,30%(一般),暂无数据,上钢物业管理有限公司
419,大华锦绣华城十六街区(公寓),https://shanghai.anjuke.com/community/view/175238,31.182532,121.537165,公寓,2.20元/平米/月,69000m²,927户,2010年,1000,1.2,41%(高),大华集团,新加坡怡安物业管理有限公司
420,金利公寓,https://shanghai.anjuke.com/community/view/169664,31.209856,121.668953,公寓,0.90元/平米/月,168400m²,1098户,2014年,270,1.34,27%(一般),上海保利金鹏置业有限公司, 上海保利物业管理有限公司 
421,齐爱佳苑,https://shanghai.anjuke.com/community/view/148176,31.213224,121.668291,公寓,1.00元/平米/月,156322m²,672户,2008年,180,1.7,30%(一般),上海申昶房地产开发有限公司,上海浦东利群物业有限公司
422,牡丹小区,https://shanghai.anjuke.com/community/view/129590,31.213235,121.551703,公寓,0.40元/平米/月,20000m²,1200户,1994年,500,1.6,25%(一般),上海市花木房地产开发经营公司,上海方圆物业管理有限公司
423,东波苑二街坊,https://shanghai.anjuke.com/community/view/121565,31.291508,121.583031,公寓,0.80元/平米/月,96000m²,1020户,2003年,352,暂无数据,40%(高),上海裕华房地产开发有限公司,上海浦东新区东波物业管理有限公司
424,耀华路270号小区,https://shanghai.anjuke.com/community/view/85367,31.180953,121.495229,公寓,0.50元/平米/月,180000m²,600户,1987年,240,1.8,32%(一般),暂无数据,暂无数据
425,阳光花城同景苑,https://shanghai.anjuke.com/community/view/63355,31.250661,121.684236,公寓,0.50元/平米/月,78685m²,1650户,2005年,460,1.6,40%(高),上海同运置业有限公司,上海同运物业服务有限公司
426,欧风家园(南区),https://shanghai.anjuke.com/community/view/18364,31.101689,121.594255,公寓,0.80元/平米/月,115200m²,1256户,2006年,198,1.45,32%(一般),上海鹏航建设发展有限公司,上海友全物业管理有限公司
427,伟业金锦苑三村,https://shanghai.anjuke.com/community/view/13053,31.290823,121.593517,公寓,0.50元/平米/月,53000m²,480户,2003年,230,1.8,30%(一般),上海浦东伟业房地产开发总公司,东波路585弄
428,地杰国际城E欧泊时光,https://shanghai.anjuke.com/community/view/13043,31.164844,121.582197,公寓,1.65元/平米/月,18m²,1389户,2005年,720,1.9,33%(一般),上海地杰置业有限公司,上海上实物业管理有限公司
429,花木新村,https://shanghai.anjuke.com/community/view/12378,31.20099,121.564075,公寓,0.60元/平米/月,暂无数据,暂无数据,1994年,200,1.6,25%(一般),上海花木开发有限公司,上海陆家嘴双乐物业管理有限公司
430,阳光花城同馨苑,https://shanghai.anjuke.com/community/view/11880,31.248622,121.684875,公寓,0.70元/平米/月,暂无数据,暂无数据,2005年,360,1.8,35%(一般),上海同运置业有限公司,上海同运物业服务有限公司
431,双秀家园(南园),https://shanghai.anjuke.com/community/view/7717,31.12524,121.572161,公寓,0.67元/平米/月,110000m²,1052户,2005年,214,1.38,42%(高),上海周康房地产有限公司,上海鑫源物业经营管理有限公司
432,古馨苑,https://shanghai.anjuke.com/community/view/7701,31.031478000000003,121.646113,公寓,1.20元/平米/月,35000m²,339户,2004年,120,1.6,41%(高),上海虹大房地产开发有限公司,上海兴桥盛物业有限公司
433,海洲桃花园,https://shanghai.anjuke.com/community/view/7696,31.040674,121.606826,公寓,0.75元/平米/月,117700m²,1400户,2004年,470,1.4,36%(一般),上海市闵行区直管公房资产管理有限公司,舟基物业管理有限公司
434,凌兆新村,https://shanghai.anjuke.com/community/view/6125,31.151323,121.49788999999998,公寓,0.60元/平米/月,暂无数据,暂无数据,1995年,568,1.3,30%(一般),上海三林房地产开发经营有限公司,上海三林物业
435,三林路785弄小区,https://shanghai.anjuke.com/community/view/6124,31.148113,121.514144,公寓,0.40元/平米/月,15000m²,380户,1996年,150,暂无数据,38%(一般),远大物业管理有限公司,上海国利物业管理有限公司
436,金杨新村六街坊,https://shanghai.anjuke.com/community/view/6020,31.248533,121.580831,公寓,0.50元/平米/月,21000m²,1080户,1995年,200,暂无数据,20%(一般),上海建工集团,上海陆家嘴物业有限公司
437,荣成大厦,https://shanghai.anjuke.com/community/view/5915,31.246851,121.524825,公寓,1.00元/平米/月,暂无数据,暂无数据,1998年,暂无数据,1.2,30%(一般),暂无数据,三航物业
438,樱花路89弄小区,https://shanghai.anjuke.com/community/view/5478,31.212038,121.552473,公寓,0.30元/平米/月,11000m²,670户,2006年,300,1.9,30%(一般),上海市花木房地产开发经营公司,上海浦东新区花木物业有限公司
439,博三小区,https://shanghai.anjuke.com/community/view/5454,31.272015000000003,121.589099,公寓,0.80元/平米/月,82000m²,230户,1997年,80,1.8,26%(一般),上海驰振物业管理有限公司,上海驰振物业管理有限公司
440,民风小区,https://shanghai.anjuke.com/community/view/5228,31.285924,121.672542,公寓,0.45元/平米/月,48000m²,400户,1995年,60,2,30%(一般),上海建工集团,上海曹路物业有限公司
441,锦博苑,https://shanghai.anjuke.com/community/view/4175,31.195443,121.543734,公寓,0.80元/平米/月,暂无数据,暂无数据,2007年,800,1.7,35%(一般),上海由由（集团）股份有限公司,上海陆家嘴双乐物业管理有限公司
442,雍景台,https://shanghai.anjuke.com/community/view/3031,31.217319,121.559241,公寓,1.00元/平米/月,14850m²,98户,2002年,地下60,3.8,30%(一般),上海山狮国际影视企业有限公司,雍景台物业
443,广洋新景苑,https://shanghai.anjuke.com/community/view/3027,31.23015800000001,121.574885,公寓,1.85元/平米/月,60000m²,700户,2004年,400,1.16,35%(一般),广洋房地产发展有限公司,仁和物业
444,通联苑(一期),https://shanghai.anjuke.com/community/view/2702,31.256262,121.572719,公寓,1.00元/平米/月,10000m²,621户,2000年,120,暂无数据,30%(一般),上海市通联房地产总公司,上海达益物业管理有限公司
445,运银公寓,https://shanghai.anjuke.com/community/view/2642,31.347917,121.592763,公寓,1.10元/平米/月,10000m²,暂无数据,2001年,100,1.2,39%(一般),上海运银置业有限公司,上海运银置业有限公司
446,芳华苑(西区),https://shanghai.anjuke.com/community/view/2638,31.202476,121.563092,公寓,1.00元/平米/月,76000m²,870户,1996年,569,1.4,35%(一般),至诚集团,上海良新物业
447,金舟苑,https://shanghai.anjuke.com/community/view/2604,31.26807800000001,121.608766,公寓,暂无数据,58000m²,558户,2002年,200,2.3,42%(高),上海南杨置业发展有限公司,上海南杨物业有限公司
448,璞真园,https://shanghai.anjuke.com/community/view/2528,31.281214,121.593377,公寓,0.90元/平米/月,47000m²,392户,2003年,430,1.3,30%(一般),上海瑞东置业有限公司,上海四商物业管理有限公司
449,弘扬公寓,https://shanghai.anjuke.com/community/view/2429,31.264758,121.575705,公寓,0.85元/平米/月,40000m²,600户,2003年,100,1.6,35%(一般),上海弘扬集团,上海通昌物业有限公司
450,金桥新家园,https://shanghai.anjuke.com/community/view/2401,31.261941,121.594053,公寓,1.50元/平米/月,210000m²,340户,2005年,22,3.5,35%(一般),上海台锦房地产有限公司,上海玉星物业管理有限公司
451,新世纪名苑,https://shanghai.anjuke.com/community/view/2137,31.259059000000004,121.581559,公寓,1.35元/平米/月,65000m²,800户,1995年,220,1.8,28%(一般),上海金桥房地产发展有限公司,上海金桥物业管理有限公司
452,连城新苑,https://shanghai.anjuke.com/community/view/2118,31.299275,121.587362,公寓,0.80元/平米/月,110000m²,1002户,2005年,450,1.6,39%(一般),上海连盈置业发展有限公司,吾城物业
453,尚东国际名园(一期),https://shanghai.anjuke.com/community/view/2116,31.168893,121.51698600000002,公寓,2.80元/平米/月,320000m²,624户,2008年,440,1.14,50%(高),上海中万置业投资有限公司,第一太平戴维斯物业顾问(上海)有限公司
454,春江花悦园,https://shanghai.anjuke.com/community/view/2113,31.291401,121.615564,公寓,1.55元/平米/月,82256m²,751户,2008年,500,暂无数据,39%(一般),上海万星房地产有限公司,上海华高物业有限公司
455,众盛公寓,https://shanghai.anjuke.com/community/view/2053,31.22190800000001,121.522644,公寓,暂无数据,19800m²,1300户,1997年,无地下停车位,1.4,20%(一般),上海置业有限公司,上海潍坊物业公司
456,万科提香别墅,https://shanghai.anjuke.com/community/view/1916,31.13913,121.55017,别墅,4.80元/平米/月,65000m²,183户,2004年,165,0.28,52%(高),上海韵园置业有限公司,上海时和南都物业管理有限公司
457,花木鑫丰苑,https://shanghai.anjuke.com/community/view/1848,31.213003000000004,121.560145,公寓,3.50元/平米/月,100000m²,380户,2003年,70,1.7,35%(一般),上海鑫丰房地产开发有限公司,上海浦东新区花木物业公司
458,锦绣天第,https://shanghai.anjuke.com/community/view/1840,31.21064,121.543646,公寓,2.00元/平米/月,400000m²,2120户,2002年,800,1.8,50%(高),上海隆宇企业发展有限公司,证大物业
459,锦绣一方名苑,https://shanghai.anjuke.com/community/view/1824,31.204673,121.54663899999998,公寓,2.00元/平米/月,120000m²,1600户,2002年,400,2.1,40%(高),上海一方置业发展有限公司,公益物业
460,泾南教师公寓,https://shanghai.anjuke.com/community/view/1664,31.237619,121.557115,公寓,0.55元/平米/月,21000m²,189户,2000年,200,1.5,40%(高),上海建工集团,上海家佳物业有限公司
461,申江豪城,https://shanghai.anjuke.com/community/view/1164,31.169609,121.506854,公寓,1.65元/平米/月,暂无数据,暂无数据,2003年,800,1.65,45%(高),上海申丰房地产开发有限公司,上海银顺物业管理有限公司
462,永泰花苑,https://shanghai.anjuke.com/community/view/1006,31.143618,121.523106,公寓,0.80元/平米/月,13000m²,1500户,2006年,500,1.7,45%(高),上海中房置业有限公司,诚悦物业管理有限公司
463,高桥新城紫薇和苑,https://shanghai.anjuke.com/community/view/986,31.342682,121.583838,公寓,1.65元/平米/月,626000m²,476户,2007年,376,1.6,35%(一般),上海新高桥开发有限公司,欣城物业
464,蓝山小城,https://shanghai.anjuke.com/community/view/678,31.280056,121.670321,别墅,3.60元/平米/月,70000m²,348户,2008年,178,0.44,36%(一般),上海万科浦东置业有限公司,上海万科物业管理有限公司
465,金唐公寓,https://shanghai.anjuke.com/community/view/639,31.208056,121.6647,公寓,4.50元/平米/月,暂无数据,暂无数据,2005年,300,1.2,35%(一般),上海金爵置业有限公司,大华物业有限公司
466,上南一村,https://shanghai.anjuke.com/community/view/305,31.183885,121.503981,公寓,1.23元/平米/月,21000m²,500户,1983年,212,1.6,20%(一般),上南集团有限公司,上南物业公司
467,新天家园,https://shanghai.anjuke.com/community/view/226,31.233974,121.548775,公寓,1.30元/平米/月,5000m²,300户,2001年,200,1.3,40%(高),上海新高房地产有限公司,上海新高房地产有限公司
468,当代清水园,https://shanghai.anjuke.com/community/view/225,31.236267,121.565604,公寓,1.00元/平米/月,150000m²,1000户,2004年,500,暂无数据,40%(高),上海泰达房地产开发有限公司,联洋港力物业
469,东郊华庭,https://shanghai.anjuke.com/community/view/209,31.223564,121.630201,别墅,3.90元/平米/月,96000m²,160户,2006年,338,0.7,53%(高),上海金和盛置业有限公司,上海金和盛置业有限公司
470,中天碧云苑,https://shanghai.anjuke.com/community/view/179,31.24395,121.583324,公寓,1.90元/平米/月,56000m²,419户,2004年,220,1.72,40%(高),上海亚东房地产有限公司,新金桥物业管理有限公司
471,陈家宅小区,https://shanghai.anjuke.com/community/view/76,31.227989,121.52254,公寓,1.00元/平米/月,72095m²,800户,1995年,200,2.8,30%(一般),暂无数据,联昌物业
472,明天华城,https://shanghai.anjuke.com/community/view/1026827,31.107109,121.58748500000002,公寓,1.75元/平米/月,暂无数据,暂无数据,2011年,暂无数据,1.76,36%(一般),上海荣惠置业有限公司,上海华城物业有限公司
473,大华锦绣华城一街区艾南花苑,https://shanghai.anjuke.com/community/view/1026194,31.191475,121.533887,公寓,1.00元/平米/月,暂无数据,暂无数据,2008年,暂无数据,1.6,38%(一般),大华集团,上海浦华物业管理有限公司
474,昌四小区,https://shanghai.anjuke.com/community/view/1026180,31.183171,121.521379,公寓,0.75元/平米/月,暂无数据,暂无数据,1994年,暂无数据,1.25,26%(一般),上海浦发集团,上南物业
475,东二小区,https://shanghai.anjuke.com/community/view/1026169,31.273801,121.60248500000002,公寓,1.00元/平米/月,暂无数据,暂无数据,1997年,暂无数据,1.2,25%(一般),上海浦龙集团,上海畅苑物业管理有限公司
476,芳雅苑,https://shanghai.anjuke.com/community/view/1026149,31.202325,121.569909,公寓,0.50元/平米/月,暂无数据,暂无数据,1996年,暂无数据,1.6,28%(一般),上海建工房产有限公司,上海花木物业
477,贵龙园,https://shanghai.anjuke.com/community/view/1026135,31.210989,121.531989,公寓,1.50元/平米/月,暂无数据,暂无数据,2001年,暂无数据,2.6,45%(高),上海贵龙房地产发展有限公司,上海由由物业有限公司
478,广洋苑,https://shanghai.anjuke.com/community/view/1026132,31.256161,121.575679,公寓,1.50元/平米/月,暂无数据,暂无数据,2000年,暂无数据,1.8,暂无数据,上海洋泾房地产有限公司,上海联洋港力物业管理有限公司
479,崮山小区一街坊,https://shanghai.anjuke.com/community/view/1026128,31.243439,121.569214,公寓,0.60元/平米/月,暂无数据,暂无数据,2001年,暂无数据,2,35%(一般),上海建工集团,通昌物业
480,富康苑,https://shanghai.anjuke.com/community/view/1026120,31.128968,121.575755,公寓,1.00元/平米/月,暂无数据,暂无数据,2011年,暂无数据,1.32,暂无数据,佰田房产有限公司,上海科瑞物业管理有限公司
481,锦华花园,https://shanghai.anjuke.com/community/view/1026002,31.191694,121.544036,公寓,1.45元/平米/月,暂无数据,暂无数据,2005年,暂无数据,1.8,47%(高),上海锦标房产发展有限公司,上海陆家嘴物业管理有限公司
482,金钻苑(南区),https://shanghai.anjuke.com/community/view/1026001,31.282947,121.688551,公寓,1.10元/平米/月,暂无数据,暂无数据,2009年,暂无数据,1.5,42%(高),上海曹路房地产开发经营公司,上海庆云物业公司
483,龙臣公寓,https://shanghai.anjuke.com/community/view/1025962,31.27616,121.595197,公寓,0.60元/平米/月,暂无数据,暂无数据,2001年,暂无数据,1.6,暂无数据,上海龙臣置业有限公司,龙臣物业
484,明珠苑,https://shanghai.anjuke.com/community/view/1025953,31.246086,121.564447,公寓,1.00元/平米/月,暂无数据,暂无数据,2000年,暂无数据,暂无数据,暂无数据,上海永欣置业有限公司,通昌物业
485,三林苑,https://shanghai.anjuke.com/community/view/1025887,31.151723,121.52806,公寓,1.50元/平米/月,暂无数据,暂无数据,1999年,暂无数据,1.83,35%(一般),上海市浦东新区房地产(集团)有限公司,上海安居物业有限公司
486,新德公寓,https://shanghai.anjuke.com/community/view/1025805,31.201471999999995,121.693906,公寓,1.20元/平米/月,暂无数据,暂无数据,2000年,暂无数据,1.2,暂无数据,上海建工集团,建工物业
487,园二小区,https://shanghai.anjuke.com/community/view/1025748,31.195362,121.700881,公寓,0.40元/平米/月,暂无数据,暂无数据,1999年,暂无数据,1.7,35%(一般),暂无数据,上海吉利物业管理有限公司
488,同润蓝美俊庭(公寓),https://shanghai.anjuke.com/community/view/1015771,30.968082,121.755142,公寓,2.20元/平米/月,暂无数据,暂无数据,2015年,暂无数据,1.8,35%(一般),上海垄汇房地产开发有限公司,上海锐翔上房物业管理有限公司
489,凌兆三村,https://shanghai.anjuke.com/community/view/1015212,31.150858000000003,121.507924,公寓,0.60元/平米/月,暂无数据,暂无数据,1994年,暂无数据,暂无数据,暂无数据,三林集团,上海三凌物业管理有限公司
490,阳光二村,https://shanghai.anjuke.com/community/view/1015210,31.25258,121.558582,公寓,2.50元/平米/月,暂无数据,暂无数据,1994年,暂无数据,暂无数据,暂无数据,阳光房地产开发有限集团,洋泾物业
491,昌五小区,https://shanghai.anjuke.com/community/view/990494,31.18482,121.523921,公寓,0.30元/平米/月,暂无数据,暂无数据,1995年,暂无数据,1.6,28%(一般),上南众开开发集团,浦房物业管理有限公司
492,荷一小区,https://shanghai.anjuke.com/community/view/990446,31.278054,121.600149,公寓,0.35元/平米/月,暂无数据,暂无数据,1996年,暂无数据,1.3,28%(一般),金巷开发商,高化物业管理有限公司
493,金杨新村九街坊,https://shanghai.anjuke.com/community/view/990430,31.258625,121.587245,公寓,0.80元/平米/月,暂无数据,暂无数据,1998年,暂无数据,1.8,25%(一般),上海陆家嘴房产开发有限公司,上海陆家嘴物业管理有限公司
494,绿地临港家园海洋小区,https://shanghai.anjuke.com/community/view/990418,30.887633,121.919745,公寓,0.99元/平米/月,暂无数据,暂无数据,2007年,暂无数据,暂无数据,暂无数据,上海绿地临港建设发展有限公司,欣周物业
495,潼港二村,https://shanghai.anjuke.com/community/view/990344,31.346507,121.582131,公寓,0.70元/平米/月,暂无数据,暂无数据,1997年,暂无数据,1.8,暂无数据,上海潼港置业有限公司,上海勤民物业有限公司
496,碧云新天地家园(一期),https://shanghai.anjuke.com/community/view/990293,31.266831,121.595172,公寓,2.10元/平米/月,暂无数据,暂无数据,2002年,暂无数据,1.6,36%(一般),上海金桥加工出口区房产地产有限公司,上海欣城物业管理有限公司
497,东城新村,https://shanghai.anjuke.com/community/view/990238,31.206731,121.549947,公寓,0.50元/平米/月,暂无数据,暂无数据,1997年,暂无数据,1.2,25%(一般),上海由由(集团)股份有限公司,上海陆家嘴物业管理有限公司
498,浦建小区,https://shanghai.anjuke.com/community/view/990117,31.215671,121.526972,公寓,0.35元/平米/月,暂无数据,暂无数据,1992年,暂无数据,暂无数据,暂无数据,上海建工集团,上海浦东新区潍坊物业公司
499,潍坊四村,https://shanghai.anjuke.com/community/view/990084,31.224525,121.530518,公寓,0.45元/平米/月,暂无数据,暂无数据,1982年,暂无数据,1.8,暂无数据,上海建工集团,上海浦东新区潍坊物业公司
500,潍坊十村二小区,https://shanghai.anjuke.com/community/view/990082,31.228152,121.531282,公寓,0.80元/平米/月,暂无数据,暂无数据,1986年,暂无数据,1.7,暂无数据,上海建工集团有限公司,上海浦东新区潍坊物业
501,潼港东八村,https://shanghai.anjuke.com/community/view/990075,31.355104,121.57858799999998,公寓,暂无数据,暂无数据,暂无数据,1995年,暂无数据,暂无数据,暂无数据,暂无数据,暂无数据
502,杨园三村,https://shanghai.anjuke.com/community/view/990037,31.320134000000003,121.636226,公寓,0.90元/平米/月,暂无数据,暂无数据,1994年,暂无数据,1.8,暂无数据,策源开发集团,策源物业
503,竹园新村,https://shanghai.anjuke.com/community/view/990030,31.235247,121.537542,公寓,0.75元/平米/月,暂无数据,暂无数据,1996年,暂无数据,暂无数据,35%(一般),上海建工集团,上海浦东新区潍坊物业公司
504,惠扬大厦,https://shanghai.anjuke.com/community/view/924805,31.248676,121.540141,公寓,1.80元/平米/月,暂无数据,暂无数据,2007年,暂无数据,5,40%(高),上海恵扬开发有限公司,联勤物业
505,宝龙世家,https://shanghai.anjuke.com/community/view/915087,30.874094,121.856528,公寓,2.90元/平米/月,暂无数据,暂无数据,暂无数据,暂无数据,2,35%(一般),上海宝龙睿承房地产开发有限公司,宝龙地产控股有限公司
506,中惠广场,https://shanghai.anjuke.com/community/view/910600,31.25893,121.615851,公寓,2.90元/平米/月,暂无数据,暂无数据,2008年,暂无数据,6,30%(一般),上海市中惠房地产发展有限公司,上海久联物业管理有限公司
507,东园一村,https://shanghai.anjuke.com/community/view/907854,31.237846,121.519254,公寓,2.00元/平米/月,暂无数据,暂无数据,暂无数据,1250,暂无数据,暂无数据,暂无数据,上海华贸物业管理有限公司
508,浦东世纪花园(一期),https://shanghai.anjuke.com/community/view/907848,31.217279,121.562435,公寓,2.55元/平米/月,暂无数据,暂无数据,2002年,暂无数据,暂无数据,暂无数据,上海联合发展有限公司,浦东世纪物业
509,康桥月苑(北区),https://shanghai.anjuke.com/community/view/877172,31.13461400000001,121.60112,公寓,0.80元/平米/月,暂无数据,暂无数据,暂无数据,暂无数据,暂无数据,暂无数据,上海雨润房地产开发有限公司,上海豫园物业管理有限公司
510,万祥兴隆苑,https://shanghai.anjuke.com/community/view/877164,30.963703,121.8181,公寓,2.01元/平米/月,暂无数据,暂无数据,暂无数据,暂无数据,暂无数据,暂无数据,暂无数据,暂无数据
511,海洲桃花园,https://shanghai.anjuke.com/community/view/877126,31.043188,121.606072,公寓,暂无数据,暂无数据,暂无数据,暂无数据,暂无数据,暂无数据,暂无数据,暂无数据,暂无数据
512,大唐国际公寓,https://shanghai.anjuke.com/community/view/877116,31.213044,121.566612,公寓,暂无数据,暂无数据,暂无数据,暂无数据,暂无数据,暂无数据,暂无数据,暂无数据,无
513,爱家亚洲花园(一期),https://shanghai.anjuke.com/community/view/877092,31.20585800000001,121.541552,公寓,2.00元/平米/月,暂无数据,暂无数据,暂无数据,暂无数据,暂无数据,暂无数据,暂无数据,证大物业
514,汇民锦苑,https://shanghai.anjuke.com/community/view/877090,30.980146,121.760982,公寓,暂无数据,暂无数据,暂无数据,暂无数据,暂无数据,暂无数据,暂无数据,暂无数据,无
515,金茂花园(南座),https://shanghai.anjuke.com/community/view/877057,31.265738,121.567276,公寓,1.25元/平米/月,暂无数据,暂无数据,暂无数据,暂无数据,暂无数据,暂无数据,暂无数据,地和苑物业
516,环球翡翠湾花园(别墅),https://shanghai.anjuke.com/community/view/873623,31.159936,121.539989,别墅,2.20元/平米/月,暂无数据,暂无数据,2005年,暂无数据,1.5,42%(高),暂无数据,第一太平戴维斯物业顾问(上海)有限公司
517,通联苑(二期),https://shanghai.anjuke.com/community/view/866800,31.25709,121.572326,公寓,1.00元/平米/月,暂无数据,暂无数据,2000年,暂无数据,暂无数据,45%(高),上海通联房地产有限公司,上海通昌物业管理有限公司
518,绿川小区(东区),https://shanghai.anjuke.com/community/view/866682,31.177979,121.557268,公寓,0.80元/平米/月,暂无数据,暂无数据,暂无数据,暂无数据,暂无数据,暂无数据,暂无数据,上海长银物业
519,联洋花园(二期),https://shanghai.anjuke.com/community/view/866645,31.234327,121.560887,公寓,暂无数据,暂无数据,暂无数据,暂无数据,暂无数据,暂无数据,暂无数据,暂无数据,联洋港力物业
520,莲园路580弄小区,https://shanghai.anjuke.com/community/view/866643,31.192199,121.566355,公寓,0.35元/平米/月,暂无数据,暂无数据,暂无数据,暂无数据,暂无数据,暂无数据,荣发置业,上海北房物业
521,恒大华城天地苑,https://shanghai.anjuke.com/community/view/866539,31.16641,121.492415,公寓,1.00元/平米/月,暂无数据,暂无数据,2001年,暂无数据,2.34,55%(高),上海恒大房产股份有限公司,恒大锦之嘉物业有限公司
522,大华斐勒公园,https://shanghai.anjuke.com/community/view/866457,31.184612,121.532248,暂无数据,10.00元/平米/月,75198m²,924户,暂无数据,924,1.4,35%(一般),上海锦绣华城房地产开发有限公司,上海浦东房地产集团物业管理有限公司
523,微山二村,https://shanghai.anjuke.com/community/view/866408,31.214258,121.520051,公寓,0.50元/平米/月,暂无数据,暂无数据,1985年,暂无数据,1.2,30%(一般),暂无数据,潍坊物业
524,绿地蓝海庭,https://shanghai.anjuke.com/community/view/866405,30.89022700000001,121.923045,公寓,2.01元/平米/月,暂无数据,暂无数据,2009年,暂无数据,1.04,35%(一般),上海市绿地集团置业有限公司,上海科瑞物业管理发展有限公司
525,湾流域城(金地湾流域三期公寓),https://shanghai.anjuke.com/community/view/862195,31.152753000000004,121.523149,公寓,2.80元/平米/月,暂无数据,暂无数据,2009年,暂无数据,1.5,35%(一般),上海金地经久房地产发展有限公司,上海金地物业服务有限公司
526,邮电金桥新村,https://shanghai.anjuke.com/community/view/821264,31.272169,121.608569,公寓,1.35元/平米/月,暂无数据,暂无数据,1997年,暂无数据,2,30%(一般),上海建工集团,上海邮政物业管理有限公司
527,新花苑,https://shanghai.anjuke.com/community/view/821256,31.200612,121.559115,公寓,0.80元/平米/月,暂无数据,暂无数据,1995年,暂无数据,1.5,40%(高),暂无数据,上海中波物业管理有限公司
528,银杏苑,https://shanghai.anjuke.com/community/view/821140,31.143674,121.530038,公寓,0.60元/平米/月,暂无数据,暂无数据,1998年,暂无数据,1.8,40%(高),上海市浦东新区房地产（集团）有限公司,上海安居物业有限公司浦东分公司
529,银华苑,https://shanghai.anjuke.com/community/view/821127,31.201879,121.686431,公寓,1.60元/平米/月,暂无数据,暂无数据,1994年,暂无数据,1.9,32%(一般),上海建银房地产有限公司,上海大华物业管理有限公司
530,鑫源物业小区,https://shanghai.anjuke.com/community/view/820274,31.120957,121.585547,暂无数据,0.70元/平米/月,暂无数据,暂无数据,暂无数据,100,1.5,35%(一般),暂无数据,暂无数据
531,张江名流豪庭,https://shanghai.anjuke.com/community/view/820261,31.22275,121.65313,公寓,2.20元/平米/月,暂无数据,暂无数据,2010年,暂无数据,暂无数据,35%(一般),上海华飞投资集团股份有限公司,上海东郊皇庭有限公司
532,御沁园西区公寓),https://shanghai.anjuke.com/community/view/819989,31.107283,121.580109,公寓,2.00元/平米/月,暂无数据,暂无数据,2016年,暂无数据,1.35,35%(一般),上海荣启置业有限公司,家利物业管理(上海)有限公司
533,陆家嘴新景园(一期),https://shanghai.anjuke.com/community/view/819533,31.254909,121.578402,公寓,1.80元/平米/月,暂无数据,暂无数据,2001年,暂无数据,1.56,35%(一般),上海陆家嘴房产开发有限公司,上海市陆家嘴物业管理公司
534,凌兆十一村,https://shanghai.anjuke.com/community/view/819376,31.150413,121.498787,公寓,0.40元/平米/月,暂无数据,暂无数据,1998年,暂无数据,1.3,30%(一般),三林地产开发有限公司,上海仁信物业管理有限公司
535,上海滩花园洋房(南区),https://shanghai.anjuke.com/community/view/819332,31.244152000000003,121.540004,别墅,3.00元/平米/月,暂无数据,暂无数据,2004年,暂无数据,0.9,60%(高),上海长甲置业有限公司,上海金晨物业经营管理有限公司
536,中邦风雅颂联洋花园丁香苑,https://shanghai.anjuke.com/community/view/819178,31.234684,121.563146,公寓,2.00元/平米/月,暂无数据,暂无数据,2002年,暂无数据,2.3,42%(高),上海中邦置业（集团）有限公司,上海联洋港力物业管理有限公司 
537,惠康苑西苑,https://shanghai.anjuke.com/community/view/819005,31.074647,121.743424,公寓,1.20元/平米/月,暂无数据,暂无数据,暂无数据,暂无数据,暂无数据,40%(高),上海中建申拓投资发展有限公司,上海民乐物业有限公司
538,三林新村(一区),https://shanghai.anjuke.com/community/view/818961,31.140245,121.511766,公寓,0.90元/平米/月,暂无数据,暂无数据,1995年,暂无数据,1.5,30%(一般),三林地产开发有限公司,上海三林物业管理有限公司
539,三林世博家园(K),https://shanghai.anjuke.com/community/view/818951,31.170055,121.545447,公寓,0.80元/平米/月,暂无数据,暂无数据,2005年,暂无数据,2,30%(一般),上海市浦东新区房地产（集团）有限公司,上海浦东房地产集团物业管理有限公司
540,沪南路3468弄小区,https://shanghai.anjuke.com/community/view/818182,31.121267,121.569542,公寓,1.20元/平米/月,暂无数据,暂无数据,2005年,暂无数据,1.3,37%(一般),上海康星房地产开发有限公司,上海轻工物业管理有限公司
541,金桥一景丽苑(西区),https://shanghai.anjuke.com/community/view/818068,31.258612,121.600653,公寓,1.10元/平米/月,暂无数据,暂无数据,2002年,暂无数据,暂无数据,30%(一般),上海锦旋房地产有限公司,上海黎达物业发展有限公司
542,尼德兰北岸,https://shanghai.anjuke.com/community/view/818060,31.340695,121.584778,别墅,3.15元/平米/月,暂无数据,暂无数据,2010年,暂无数据,0.58,35%(一般),上海新高桥开发有限公司,上海外高桥物业管理有限公司
543,爱法新都(二期),https://shanghai.anjuke.com/community/view/816672,31.262261,121.607034,公寓,0.38元/平米/月,暂无数据,暂无数据,2000年,暂无数据,1.48,49%(高),上海爱法房地产经营开发有限公司,爱洁物业有限公司
544,名门滨江苑,https://shanghai.anjuke.com/community/view/791664,31.248592,121.536809,公寓,暂无数据,暂无数据,暂无数据,2003年,暂无数据,2.2,40%(高),上海时蓄企业发展有限公司,怡高物业
545,德锦苑,https://shanghai.anjuke.com/community/view/791566,31.178174,121.552727,公寓,暂无数据,暂无数据,暂无数据,2016年,暂无数据,暂无数据,暂无数据,暂无数据,上海开伦物业
546,品欣雅苑,https://shanghai.anjuke.com/community/view/790843,31.329598,121.63296,公寓,1.20元/平米/月,暂无数据,暂无数据,2014年,暂无数据,2,35%(一般),暂无数据,新园物业
547,绝对城市,https://shanghai.anjuke.com/community/view/754740,31.270011,121.663094,公寓,1.10元/平米/月,暂无数据,暂无数据,2006年,445,1.64,55%(高),上海美地芳邻房地产开发有限公司,上海芸绮物业管理有限公司
548,爱法花园(一期),https://shanghai.anjuke.com/community/view/754550,31.278025,121.665426,公寓,0.75元/平米/月,暂无数据,暂无数据,2003年,272,1.45,40%(高),上海爱法房地产经营开发有限公司,上海芸绮物业管理有限公司
549,安广苑,https://shanghai.anjuke.com/community/view/751837,31.027693,121.645078,公寓,0.95元/平米/月,暂无数据,暂无数据,2008年,暂无数据,暂无数据,55%(高),上海致远房产发展有限公司,上海新房物业管理有限公司
550,海韵茗庭,https://shanghai.anjuke.com/community/view/730724,31.301440000000003,121.586737,公寓,0.60元/平米/月,暂无数据,暂无数据,2015年,暂无数据,2.3,35%(一般),上海在线置业发展有限公司,上海华高物业管理有限公司
551,悦天地,https://shanghai.anjuke.com/community/view/729994,31.281233,121.676156,公寓,5.80元/平米/月,暂无数据,暂无数据,2015年,暂无数据,1.2,30%(一般),上海浦发振丰房地产发展有限公司,上海倚江物业管理有限公司
552,华发四季,https://shanghai.anjuke.com/community/view/729086,31.178143,121.629113,公寓,5.80元/平米/月,140701m²,695户,2016年,845,2,35%(一般),上海铧发创盛置业有限公司,第一太平戴维斯(Savills)物业管理有限公司
553,祝苑公寓,https://shanghai.anjuke.com/community/view/659260,31.130857,121.771404,公寓,2.00元/平米/月,暂无数据,暂无数据,1998年,暂无数据,暂无数据,暂无数据,暂无数据,暂无数据
554,鹤沙航城瑞馨苑,https://shanghai.anjuke.com/community/view/658219,31.086815,121.6133,公寓,暂无数据,暂无数据,暂无数据,2014年,暂无数据,暂无数据,35%(一般),暂无数据,武房地产有限责任公司
555,金色郦苑,https://shanghai.anjuke.com/community/view/656041,31.370668,121.542027,公寓,1.20元/平米/月,暂无数据,暂无数据,2014年,暂无数据,暂无数据,35%(一般),暂无数据,潼港物业
556,紫菁庭,https://shanghai.anjuke.com/community/view/655472,30.877846,121.862612,公寓,2.48元/平米/月,65000m²,684户,2015年,411,1.52,35%(一般),上海漕河泾芦潮港置业有限公司,铭杰物业
557,上浦路69弄小区,https://shanghai.anjuke.com/community/view/654812,31.151026,121.49631399999998,公寓,0.60元/平米/月,暂无数据,暂无数据,1997年,30,2,45%(高),建工集团股份有限公司,三凌物业
558,东方康达家苑(一期),https://shanghai.anjuke.com/community/view/652127,31.12786,121.51031299999998,公寓,1.10元/平米/月,暂无数据,暂无数据,暂无数据,暂无数据,暂无数据,暂无数据,暂无数据,上海浦江物业有限公司
559,欣荷苑,https://shanghai.anjuke.com/community/view/650237,31.02625,121.707943,公寓,1.20元/平米/月,暂无数据,暂无数据,2009年,暂无数据,1.8,30%(一般),上海东鼎房地产发展有限公司,上海宣桥物业管理有限公司
560,鹤沙航城汇康锦苑,https://shanghai.anjuke.com/community/view/647832,31.076932,121.599417,公寓,2.50元/平米/月,暂无数据,暂无数据,暂无数据,300,暂无数据,暂无数据,沪武房地产有限责任公司,暂无数据
561,保集澜湾,https://shanghai.anjuke.com/community/view/641223,31.244871000000003,121.679442,公寓、别墅,3.00元/平米/月,暂无数据,暂无数据,2017年,1012,1.2,40%(高),上海川杰置业有限公司,上海保集物业管理有限公司
562,唐丰苑,https://shanghai.anjuke.com/community/view/628374,31.204889,121.659797,公寓,1.24元/平米/月,25600m²,2888户,2013年,1095,1.8,36%(一般),唐城投资公司, 上海金晨物业经营管理有限公司
563,万科翡翠公园(二期),https://shanghai.anjuke.com/community/view/627907,31.185759,121.62033999999998,公寓,5.80元/平米/月,300000m²,1800户,2014年,500,2.88,35%(一般),上海万之江房地产开发有限公司,上海万科物业有限公司
564,阳光国际公寓,https://shanghai.anjuke.com/community/view/627838,31.275174,121.619764,公寓,1.80元/平米/月,100000m²,334户,2005年,400,1.5,40%(高),阳光欧洲城投资发展有限公司,上海陆家嘴物业
565,阳光欧洲城二期,https://shanghai.anjuke.com/community/view/627835,31.273793,121.614705,公寓,1.85元/平米/月,暂无数据,暂无数据,2000年,暂无数据,1.2,40%(高),上海阳光欧洲城投资发展（集团）有限公司,上海陆家嘴物业管理有限公司
566,千汇苑四村,https://shanghai.anjuke.com/community/view/620567,31.12334,121.772403,公寓,0.50元/平米/月,5318m²,1650户,2007年,980,1.7,42%(高),祝桥新镇投资发展有限公司,上海悦聘物业管理有限公司
567,千汇苑二村,https://shanghai.anjuke.com/community/view/620566,31.119907,121.773935,公寓,0.50元/平米/月,5212m²,1600户,2008年,900,1.7,36%(一般),上海祝桥新镇投资发展有限公司,上海悦聘物业管理有限公司
568,绿洲康城金邸,https://shanghai.anjuke.com/community/view/610709,31.158664,121.583281,公寓,4.50元/平米/月,89124m²,258户,2016年,328,2.24,40%(高),上海振龙房地产开发有限公司,上海茂兴物业管理有限公司
569,南郊艺墅,https://shanghai.anjuke.com/community/view/610058,31.030574,121.580985,别墅,1.40元/平米/月,300000m²,2500户,2008年,地下547个、地上747个,0.7,43%(高),上海东升置业发展有限公司,上海航三物业管理有限公司
570,三杨新村一街坊,https://shanghai.anjuke.com/community/view/608258,31.160927,121.495793,公寓,1.20元/平米/月,1300m²,1002户,2013年,600,2,40%(高),三林地产开发集团,锦佳物业
571,保利蔚蓝林语(公寓),https://shanghai.anjuke.com/community/view/606052,30.90734,121.910331,公寓,2.38元/平米/月,171936m²,240户,2014年,保利蔚蓝林语共有车位数量919个,1,35%(一般),上海保利建臻房地产有限公司,保利物业管理有限公司上海分公司
572,尼德兰官邸,https://shanghai.anjuke.com/community/view/605061,31.339322,121.587301,公寓,5.30元/平米/月,65000m²,263户,2014年,415,1,35%(一般),上海新高桥开发有限公司,欣城物业
573,鹤沙航城昱星家园(西区),https://shanghai.anjuke.com/community/view/596040,31.088265000000003,121.597178,公寓,1.07元/平米/月,暂无数据,暂无数据,2012年,暂无数据,1.9,30%(一般),暂无数据,物业
574,张江公馆,https://shanghai.anjuke.com/community/view/595159,31.209148,121.643543,公寓,5.80元/平米/月,75457m²,621户,2014年,暂无数据,2,20%(一般),上海华鸿天地房地产开发有限公司,上海新秀物业管理有限公司
575,绿川小区(西区),https://shanghai.anjuke.com/community/view/590058,31.176408,121.556656,公寓,0.50元/平米/月,30000m²,400户,1990年,120,暂无数据,35%(一般),绿地集团,上海长银物业发展有限公司
576,浦东新世纪花苑(二期),https://shanghai.anjuke.com/community/view/565056,31.179601,121.490054,公寓,0.50元/平米/月,49680m²,520户,2002年,520,暂无数据,35%(一般),上海新世纪创业集团有限公司,上海新世纪物业管理有限公司
577,东南新村,https://shanghai.anjuke.com/community/view/563580,31.231051,121.523001,公寓,0.50元/平米/月,暂无数据,暂无数据,1980年,800,1.8,20%(一般),浦东建筑集团,潍坊物业
578,君誉江畔,https://shanghai.anjuke.com/community/view/560651,31.217491,121.525036,公寓,9.80元/平米/月,45990m²,600户,2005年,200,暂无数据,20%(一般),上海华屋经济发展有限公司,戴德梁行物业管理有限公司
579,心圆西苑,https://shanghai.anjuke.com/community/view/558534,31.178872,121.698248,公寓,1.25元/平米/月,暂无数据,暂无数据,2012年,1500,暂无数据,30%(一般),上海心圆房地产开发有限公司,上海浦东新区新川物业管理有限公司
580,欣秋苑,https://shanghai.anjuke.com/community/view/554506,31.02720900000001,121.71215,公寓,1.20元/平米/月,暂无数据,暂无数据,2009年,500,1.2,35%(一般),暂无数据,宣桥物业公司
581,大华锦绣华城十七街区(公寓),https://shanghai.anjuke.com/community/view/540497,31.182656,121.539359,公寓,1.85元/平米/月,43600m²,165户,2014年,185,暂无数据,35%(一般),上海锦绣华城房地产开发有限公司,上海浦华物业管理有限公司 
582,华汇公寓(二期),https://shanghai.anjuke.com/community/view/529228,31.053837,121.759567,公寓,2.33元/平米/月,暂无数据,暂无数据,2007年,100,1.95,35%(一般),周房置业开发有限公司,无
583,千汇苑一村,https://shanghai.anjuke.com/community/view/521806,31.116057,121.775216,公寓,0.50元/平米/月,5212m²,1500户,2007年,地上停车位,1.7,36%(一般),上海祝桥新镇投资发展有限公司,上海祝桥新镇投资发展有限公司
584,玉兰香苑(三期),https://shanghai.anjuke.com/community/view/508301,31.203518,121.640691,公寓,0.45元/平米/月,暂无数据,暂无数据,2007年,暂无数据,2,46%(高),上海张江房地产有限公司,上海张江物业管理有限公司
585,东后老街202弄小区,https://shanghai.anjuke.com/community/view/507592,31.028234,121.654565,公寓,暂无数据,暂无数据,暂无数据,暂无数据,暂无数据,暂无数据,暂无数据,暂无数据,暂无数据
586,王家宅小区,https://shanghai.anjuke.com/community/view/501953,31.222752000000003,121.532265,公寓,0.50元/平米/月,暂无数据,暂无数据,1994年,350,1.8,35%(一般),三航局开发有限公司,上海潍坊物业公司
587,领航UPTOWN,https://shanghai.anjuke.com/community/view/498616,31.04239500000001,121.600485,公寓,2.10元/平米/月,79400m²,388户,2013年,暂无数据,2.7,35%(一般),上海振河房地产开发有限公司,上海正阳物业管理有限公司
588,金顺佳苑,https://shanghai.anjuke.com/community/view/482305,31.152116,121.752103,公寓,暂无数据,暂无数据,暂无数据,暂无数据,暂无数据,暂无数据,暂无数据,上海金顺房地产开发有限公司,上海浦东物业管理公司
589,海霞新苑,https://shanghai.anjuke.com/community/view/467194,31.174209,121.745702,公寓,1.20元/平米/月,暂无数据,暂无数据,2002年,230,1.8,35%(一般),上海玉宇房地产开发有限公司,上海浦东物业管理公司
590,荣成小区北区,https://shanghai.anjuke.com/community/view/426936,31.248099,121.525079,公寓,1.00元/平米/月,暂无数据,暂无数据,1987年,50,1.2,28%(一般),上海建工,洋泾物业
591,大湾名苑,https://shanghai.anjuke.com/community/view/418963,31.251461,121.692087,公寓,1.20元/平米/月,暂无数据,暂无数据,2011年,580,1.8,35%(一般),暂无数据,上海利群物业管理有限公司
592,海尚明徕苑,https://shanghai.anjuke.com/community/view/375849,30.87869,121.865572,公寓,1.00元/平米/月,86000m²,1200户,2008年,600,1.6,35%(一般),上海临港芦潮港经济发展有限公司,上海开伦物业管理有限公司
593,长城珑湾,https://shanghai.anjuke.com/community/view/370221,31.060791,121.788908,公寓,2.00元/平米/月,229519m²,312户,2012年,312个,1.5,35%(一般),上海深长城地产有限公司,长城物业集团股份有限公司
594,东海御庭,https://shanghai.anjuke.com/community/view/370188,31.211321,121.779793,别墅,7.10元/平米/月,暂无数据,146户,2015年,暂无数据,0.33,69%(高),上海浦东新区水利房地产开发有限公司,上海高力国际物业服务有限公司
595,东园雅集,https://shanghai.anjuke.com/community/view/370151,31.227887,121.625068,别墅,6.00元/平米/月,30000m²,17户,2011年,17个,0.42,30%(一般),上海鸿瑞置业有限公司,上海中远物业管理发展有限公司
596,中海御景熙岸,https://shanghai.anjuke.com/community/view/370146,31.135241,121.536899,公寓,2.20元/平米/月,193392m²,1400户,2012年,1133,1.2,35%(一般),上海中海海怡房产有限公司,中海物业上海分公司
597,绿地景汇佳苑,https://shanghai.anjuke.com/community/view/363547,31.112054,121.58493500000002,别墅,2.20元/平米/月,220000m²,891户,2012年,673,1.4,35%(一般),绿地（集团）有限公司,上海欣周物业管理有限公司
598,蓝色城邦,https://shanghai.anjuke.com/community/view/357782,30.907008,121.817885,公寓,1.80元/平米/月,650000m²,766户,2009年,1200,1.4,36%(一般),上海新元联业企业发展有限公司,上海浦江物业有限公司
599,临港海滨国际花园,https://shanghai.anjuke.com/community/view/346440,30.873096000000004,121.865918,公寓,1.70元/平米/月,82000m²,1273户,2011年,757,1.46,35%(一般),上海临港芦潮港经济发展有限公司,友权物业
600,高行绿洲庭安苑(高行绿洲五期),https://shanghai.anjuke.com/community/view/337055,31.331954,121.60171499999998,公寓,1.10元/平米/月,暂无数据,暂无数据,2008年,300,2.6,40%(高),外高桥集团,彩生活物业
601,东和公寓,https://shanghai.anjuke.com/community/view/326515,31.221806,121.545811,公寓,3.50元/平米/月,暂无数据,413户,2004年,暂无数据,暂无数据,43%(高),暂无数据,陆家嘴物业
602,沉香苑一街坊,https://shanghai.anjuke.com/community/view/317806,31.080681,121.596571,公寓,3.00元/平米/月,92800m²,2860户,2010年,1080,1.9,35%(一般),上海隧峰房地产开发公司,沉香物业有限公司
603,龙博公寓,https://shanghai.anjuke.com/community/view/314490,31.18505,121.5611,公寓,0.80元/平米/月,2m²,654户,2009年,地上,3.6,28%(一般),上海驭翔置业有限公司,北蔡物业
604,舜峰家苑,https://shanghai.anjuke.com/community/view/313469,31.295666,121.680317,公寓,1.08元/平米/月,暂无数据,暂无数据,2011年,500,3.5,38%(一般),上海迪亚开发有限公司,昌悦物业管理有限公司
605,浦虹苑,https://shanghai.anjuke.com/community/view/308044,31.192794,121.525946,公寓,0.35元/平米/月,暂无数据,暂无数据,2009年,100,1.8,40%(高),上海华佳实业有限公司,暂无信息
606,砖石苑,https://shanghai.anjuke.com/community/view/305650,31.193943,121.698682,公寓,0.50元/平米/月,暂无数据,暂无数据,1996年,暂无数据,1.2,30%(一般),无,无
607,申华公寓,https://shanghai.anjuke.com/community/view/294129,31.202928000000004,121.686442,公寓,0.50元/平米/月,暂无数据,暂无数据,1995年,200,1.9,32%(一般),浦东房地产开发公司,上海大华物业管理有限公司
608,川杨新苑(三期),https://shanghai.anjuke.com/community/view/292611,31.194219,121.640445,公寓,0.80元/平米/月,5212m²,200户,1998年,地上停车位,2.29,30%(一般),上海绿地集团有限公司,上海仁联物业管理有限公司
609,汇领商墅,https://shanghai.anjuke.com/community/view/291796,31.114016,121.704217,别墅,3.00元/平米/月,34407m²,暂无数据,2010年,暂无数据,0.57,35%(一般),暂无数据,汇领物业管理有限公司
610,碧云新天地家园(三期),https://shanghai.anjuke.com/community/view/215215,31.265642,121.597573,公寓,1.95元/平米/月,100000m²,300户,2011年,350.其中广场50个,1.85,41%(高),上海金桥加工出口区房产地产有限公司,上海欣城物业
611,南郊中华园,https://shanghai.anjuke.com/community/view/202031,31.052835,121.58778999999998,别墅,2.25元/平米/月,206000m²,846户,2009年,每户含1个停车位、边套都带车库1个！,0.6,35%(一般),上海南郊中华园房地产开发有限公司,上海古北物业管理有限公司
612,泥城苑,https://shanghai.anjuke.com/community/view/200931,30.908617,121.838533,公寓,1.24元/平米/月,64000m²,532户,2013年,263,1.4,38%(一般),上海港城房地产开发有限公司,上海鑫源物业公司
613,曹路家苑,https://shanghai.anjuke.com/community/view/189843,31.279505,121.66204,公寓,1.61元/平米/月,40380m²,160户,2010年,243,暂无数据,36%(一般),上海曹路房地产开发经营公司,上海建达物业有限公司
614,华高二村,https://shanghai.anjuke.com/community/view/187298,31.286963,121.622479,公寓,0.90元/平米/月,39000m²,1164户,1996年,170,1.9,34%(一般),城建二司,上海华高物业公司
615,恒大翰城瀚林苑(公寓),https://shanghai.anjuke.com/community/view/178721,31.15614,121.516007,公寓、别墅,1.70元/平米/月,暂无数据,暂无数据,2001年,暂无数据,2.4,43%(高),上海恒大房地产开发经营有限公司,上海晰连物业管理有限公司
616,东方晶华园,https://shanghai.anjuke.com/community/view/126899,31.119854,121.584988,公寓,1.20元/平米/月,77443m²,311户,2007年,300,1.8,35%(一般),上海东方城乡房地产开发经营有限公司,启沅物业
617,繁荣安居,https://shanghai.anjuke.com/community/view/118522,31.113872,121.592584,公寓,0.80元/平米/月,38350m²,1500户,2005年,1000,1.5,35%(一般),上海鼎强房地产开发有限公司,周旺物业
618,欣菊苑,https://shanghai.anjuke.com/community/view/85519,31.026290000000003,121.707305,公寓,1.35元/平米/月,67147m²,860户,2009年,265,1.5,35%(一般),上海东鼎房地产发展有限公司,上海宣桥物业管理有限公司
619,锦绣汇丽苑四街坊,https://shanghai.anjuke.com/community/view/83456,31.041857,121.772376,公寓,1.25元/平米/月,暂无数据,暂无数据,2005年,128个,1.2,30%(一般),上海良伟置业有限公司,上海汇丽物业管理有限公司
620,金枫公寓,https://shanghai.anjuke.com/community/view/64617,31.245208,121.689306,公寓,0.45元/平米/月,76000m²,850户,2004年,360,1.8,35%(一般),上海王港房产开发,枫林物业
621,瀚锦苑,https://shanghai.anjuke.com/community/view/63684,31.15666400000001,121.518048,公寓,1.70元/平米/月,200000m²,980户,2003年,120,1.9,42%(高),陆家嘴集团·上海张杨商业建设联合发展有限公司,上海诚悦物业管理有限公司
622,意凯家苑,https://shanghai.anjuke.com/community/view/17926,31.143892,121.521854,公寓,1.10元/平米/月,8545m²,100户,2004年,充足,1.5,32%(一般),上海意凯置业有限公司,上海德佳房屋维护有限公司
623,丰怡苑,https://shanghai.anjuke.com/community/view/16512,31.272655,121.687986,公寓,0.55元/平米/月,80620m²,880户,2006年,350,暂无数据,36%(一般),上海顾路房地产开发经营公司,上海曹路物业有限公司
624,绿波城,https://shanghai.anjuke.com/community/view/16445,31.215581,121.672511,公寓,0.45元/平米/月,175000m²,910户,2006年,150,1.5,40%(高),上海鉴诚韵置业有限公司,上海倍至物业管理有限公司
625,浦发博园(公寓),https://shanghai.anjuke.com/community/view/15860,31.156681,121.54128500000002,公寓,2.14元/平米/月,87000m²,590户,2009年,413,1.3,36%(一般),上海浦东发展置业有限公司,上海浦东华沙物业有限公司
626,小上海新城,https://shanghai.anjuke.com/community/view/14808,31.126773,121.587504,公寓,0.80元/平米/月,200000m²,375户,2007年,共46个停车位,1.6,35%(一般),上海周馨置业有限公司,上海三湘物业管理有限公司
627,康桥宝邸,https://shanghai.anjuke.com/community/view/13104,31.128635,121.607798,公寓,1.20元/平米/月,26785m²,2389户,2007年,590,1.2,50%(高),上海建工楠汇房产有限公司,上海豫园物业管理有限公司
628,盛世东苑,https://shanghai.anjuke.com/community/view/12952,31.33882100000001,121.619617,公寓,0.50元/平米/月,100000m²,996户,2005年,300,1.25,30%(一般),上海豪邦置业发展有限公司,新园物业有限责任公司
629,和合新村(东区),https://shanghai.anjuke.com/community/view/12557,31.157755,121.581304,公寓,0.50元/平米/月,20000m²,300户,2015年,300,1.3,40%(高),上海周康房地产有限公司,上海联丰物业管理有限公司 
630,南泉小区,https://shanghai.anjuke.com/community/view/12423,31.219093,121.528422,公寓,0.60元/平米/月,120000m²,3640户,1984年,250,暂无数据,35%(一般),上海建工集团,上海潍坊物业公司
631,周东一村,https://shanghai.anjuke.com/community/view/12154,31.127628,121.590434,公寓,0.65元/平米/月,85600m²,2560户,2000年,156,1.5,35%(一般),周康置业开发有限公司,周房物业管理公司
632,怡心苑,https://shanghai.anjuke.com/community/view/11741,31.354711,121.581697,公寓,1.60元/平米/月,53000m²,760户,2007年,340,1.3,39%(一般),上海建工集团,潼港
633,罗山绿洲别墅,https://shanghai.anjuke.com/community/view/7925,31.157513,121.594693,别墅,4.20元/平米/月,33000m²,202户,2004年,425,0.28,69%(高),振丰（上海）有限公司,第一太平戴维斯物业管理有限公司
634,华汇公寓(一期),https://shanghai.anjuke.com/community/view/7813,31.052771000000003,121.759683,公寓,2.33元/平米/月,86000m²,8600户,2000年,860,1.95,35%(一般),上海培力房地产开发有限公司,无
635,康健新村,https://shanghai.anjuke.com/community/view/7775,31.123351,121.581205,公寓,0.50元/平米/月,4000m²,500户,1994年,120,1.5,30%(一般),周房置业,周房置业物业有限公司
636,九九别墅,https://shanghai.anjuke.com/community/view/7737,31.048994,121.719407,别墅,2.50元/平米/月,28000m²,100户,2005年,99,0.33,45%(高),上海名流置业有限公司,上海枫丹白露物业管理有限公司
637,煌烘雅墅(别墅),https://shanghai.anjuke.com/community/view/7736,31.048332,121.786087,别墅,2.00元/平米/月,70000m²,258户,2004年,室内车库,0.64,40%(高),上海生南房地产开发（集团）有限公司,上海南汇惠房物业管理有限公司
638,金色航城聚鑫苑,https://shanghai.anjuke.com/community/view/7713,31.03857600000001,121.602125,公寓,0.75元/平米/月,320000m²,736户,2005年,350,暂无数据,37%(一般),上海陈氏集团有限公司,上海优乐物业管理有限公司
639,千汇苑,https://shanghai.anjuke.com/community/view/7711,31.118235,121.774298,公寓,1.50元/平米/月,5212m²,1200户,2007年,地上停车位,1.7,36%(一般),上海祝桥新镇投资发展有限公司,孜诚物业管理有限公司
640,东陆新村四街坊,https://shanghai.anjuke.com/community/view/6058,31.282495,121.600622,公寓,0.95元/平米/月,79000m²,1360户,1996年,248,暂无数据,34%(一般),上海城投置业管理有限公司,上海安居物业管理有限公司
641,齐七小区,https://shanghai.anjuke.com/community/view/6049,31.183852,121.518729,公寓,0.35元/平米/月,暂无数据,暂无数据,1997年,165,1.8,40%(高),上南众开开发集团,上海三凌物业管理有限公司
642,高东新村,https://shanghai.anjuke.com/community/view/6043,31.33963,121.622008,公寓,0.25元/平米/月,59800m²,1152户,1993年,890,1.3,30%(一般),上海建工集团,新园物业
643,梅园六街坊,https://shanghai.anjuke.com/community/view/5770,31.241022,121.533405,公寓,2.00元/平米/月,180000m²,1800户,1999年,150,2,30%(一般),上海建工集团股份有限公司,上海申舟物业
644,浦泥小区,https://shanghai.anjuke.com/community/view/5763,31.212371,121.627551,公寓,1.30元/平米/月,暂无数据,暂无数据,暂无数据,暂无数据,暂无数据,暂无数据,暂无数据,暂无数据
645,新德五村,https://shanghai.anjuke.com/community/view/5675,31.203495,121.697146,公寓,0.36元/平米/月,40918m²,688户,1995年,108,1.4,30%(一般),暂无数据,上海万晟企业管理有限公司
646,阳光三村,https://shanghai.anjuke.com/community/view/5536,31.252993,121.558462,公寓,2.50元/平米/月,30000m²,352户,1991年,88,暂无数据,30%(一般),阳光房地产开发有限集团,洋泾物业
647,蕉丽新村,https://shanghai.anjuke.com/community/view/5531,31.206685,121.617604,公寓,1.00元/平米/月,52341m²,698户,2004年,120,1.86,40%(高),张江物业发展开发有限公司,上海张江物业发展有限公司
648,桃林一小区,https://shanghai.anjuke.com/community/view/5527,31.234876,121.549799,公寓,1.20元/平米/月,200000m²,1800户,1995年,260,1.6,40%(高),上海陆洋经济联合发展有限公司,上海陆洋物业管理有限公司
649,恒宇小区,https://shanghai.anjuke.com/community/view/5370,31.159031,121.514449,公寓,0.80元/平米/月,80000m²,876户,2004年,356,暂无数据,30%(一般),恒大地产集团有限公司,岚青物业管理有限公司
650,东盛公寓,https://shanghai.anjuke.com/community/view/2718,31.188243,121.526682,公寓,1.20元/平米/月,98000m²,41户,1998年,390,1.3,40%(高),中房上海房地产（集团）有限公司,上海科房物业管理有限公司
651,银桥花苑,https://shanghai.anjuke.com/community/view/2635,31.265608,121.594324,公寓,1.80元/平米/月,30000m²,588户,1999年,250,1.3,40%(高),上海开泰,上海浦东华沙物业有限公司
652,爱法花园(二期),https://shanghai.anjuke.com/community/view/2519,31.276333,121.662004,公寓,0.70元/平米/月,73000m²,1200户,2005年,272,1.45,40%(高),上海爱法房地产经营开发有限公司,东沟物业公司
653,张江新苑,https://shanghai.anjuke.com/community/view/2392,31.206536,121.620091,公寓,1.00元/平米/月,28500m²,768户,2003年,地上,暂无数据,48%(高),张江房地产开发有限公司,上海张江物业发展公司
654,明丰花园,https://shanghai.anjuke.com/community/view/2336,31.156427,121.538179,公寓,1.12元/平米/月,90000m²,272户,2002年,312,1.7,30%(一般),上海明乐房地产开发有限公司,上海明旺物业管理有限公司
655,兴荣家园,https://shanghai.anjuke.com/community/view/2259,31.187913,121.525393,公寓,1.35元/平米/月,52023m²,448户,2002年,450,1.3,40%(高),上海兴荣房地产发展有限公司,上海名东物业管理有限公司
